id,name,brewery_type,address_1,address_2,address_3,city,state_province,postal_code,country,longitude,latitude,phone,website_url,state,street
5128df48-79fc-4f0f-8b52-d06be54d0cec,(405) Brewing Co,micro,1716 Topeka St,,,Norman,Oklahoma,73069-8224,United States,-97.46818222,35.25738891,4058160490,http://www.405brewing.com,Oklahoma,1716 Topeka St
9c5a66c8-cc13-416f-a5d9-0a769c87d318,(512) Brewing Co,micro,407 Radam Ln Ste F200,,,Austin,Texas,78745-1197,United States,,,5129211545,http://www.512brewing.com,Texas,407 Radam Ln Ste F200
34e8c68b-6146-453f-a4b9-1f6cd99a5ada,1 of Us Brewing Company,micro,8100 Washington Ave,,,Mount Pleasant,Wisconsin,53406-3920,United States,-87.883363502094,42.720108268996,2624847553,https://www.1ofusbrewing.com,Wisconsin,8100 Washington Ave
6d14b220-8926-4521-8d19-b98a2d6ec3db,10 Barrel Brewing Co,large,62970 18th St,,,Bend,Oregon,97701-9847,United States,-121.281706,44.08683531,5415851007,http://www.10barrel.com,Oregon,62970 18th St
e2e78bd8-80ff-4a61-a65c-3bfbd9d76ce2,10 Barrel Brewing Co,large,1135 NW Galveston Ave Ste B,,,Bend,Oregon,97703-2465,United States,-121.3288021,44.0575649,5415851007,,Oregon,1135 NW Galveston Ave Ste B
e432899b-7f58-455f-9c7b-9a6e2130a1e0,10 Barrel Brewing Co,large,1411 NW Flanders St,,,Portland,Oregon,97209-2620,United States,-122.6855056,45.5259786,5032241700,http://www.10barrel.com,Oregon,1411 NW Flanders St
ef970757-fe42-416f-931d-722451f1f59c,10 Barrel Brewing Co,large,1501 E St,,,San Diego,California,92101-6618,United States,-117.129593,32.714813,6195782311,http://10barrel.com,California,1501 E St
9f1852da-c312-42da-9a31-097bac81c4c0,10 Barrel Brewing Co - Bend Pub,large,62950 NE 18th St,,,Bend,Oregon,97701,United States,-121.2809536,44.0912109,5415851007,,Oregon,62950 NE 18th St
ea4f30c0-bce6-416b-8904-fab4055a7362,10 Barrel Brewing Co - Boise,large,826 W Bannock St,,,Boise,Idaho,83702-5857,United States,-116.202929,43.618516,2083445870,http://www.10barrel.com,Idaho,826 W Bannock St
1988eb86-f0a2-4674-ba04-02454efa0d31,10 Barrel Brewing Co - Denver,large,2620 Walnut St,,,Denver,Colorado,80205-2231,United States,-104.9853655,39.7592508,7205738992,,Colorado,2620 Walnut St
1ecc330f-6275-42a5-b14e-00adbed62752,10 Torr Distilling and Brewing,micro,490 Mill St,,,Reno,Nevada,89502,United States,-119.7732015,39.5171702,7755307014,http://www.10torr.com,Nevada,490 Mill St
7531dbd8-afc9-4b5b-95bc-7ece7f2c0bf3,10-56 Brewing Company,micro,400 Brown Cir,,,Knox,Indiana,46534,United States,-86.627954,41.289715,6308165790,,Indiana,400 Brown Cir
49eaa1ab-5cee-40cd-a0dc-da14ba2b7dac,1000 Hills Brewing Company,brewpub,168 Old Main Road, Botha's Hill,,Durban,KwaZulu-Natal,3610,South Africa,30.7063,-29.7711,+27 31 777 1566,https://1000hillsbrewingcompany.co.za/,KwaZulu-Natal,168 Old Main Road
5ae467af-66dc-4d7f-8839-44228f89b596,101 North Brewing Company,closed,1304 Scott St Ste D,,,Petaluma,California,94954-7100,United States,-122.665055,38.27029381,7077534934,http://www.101northbeer.com,California,1304 Scott St Ste D
4ffda196-dd59-44a5-9eeb-5f7fd4b58f5a,105 West Brewing Co,micro,1043 Park St,,,Castle Rock,Colorado,80109-1585,United States,-104.8667206,39.38269495,3033257321,http://www.105westbrewing.com,Colorado,1043 Park St
42aa37d5-8384-4ffe-8c81-7c982eff0384,10K Brewing,micro,2005 2nd Ave,,,Anoka,Minnesota,55303-2243,United States,-93.38952559,45.19812039,7633924753,http://10KBrew.com,Minnesota,2005 2nd Ave
232e8f62-9afc-45f5-b4bc-582c26b5c43b,10th District Brewing Company,micro,491 Washington St,,,Abington,Massachusetts,02351-2419,United States,-70.94594149,42.10591754,7813071554,http://www.10thdistrictbrewing.com,Massachusetts,491 Washington St
08f78223-24f8-4b71-b381-ea19a5bd82df,11 Below Brewing Company,micro,6820 Bourgeois Rd,,,Houston,Texas,77066-3107,United States,-95.5186591,29.9515464,2814442337,http://www.11belowbrewing.com,Texas,6820 Bourgeois Rd
58293321-14ae-49d7-9a7b-08436c9e63a6,1188 Brewing Co,brewpub,141 E Main St,,,John Day,Oregon,97845-1210,United States,-118.9218754,44.4146563,5415751188,http://www.1188brewing.com,Oregon,141 E Main St
e5f3e72a-fee2-4813-82cf-f2e53b439ae6,12 Acres Brewing Company,micro,Unnamed Street,Clonmore,,Killeshin,Laois,R93 X3X8,Ireland,-6.979343891,52.84930763,353599107299,https://12acresbrewing.ie/,Laois,Unnamed Street
d81ff708-b5d2-478f-af6a-6d40f5beb9ac,12 Gates Brewing Company,brewpub,80 Earhart Dr Ste 20,,,Williamsville,New York,14221-7804,United States,,,7169066600,http://www.12gatesbrewing.com,New York,80 Earhart Dr Ste 20
fb94830f-6196-4f59-9189-c9060b778085,12 West Brewing Company,micro,3000 E Ray Rd Bldg 6,,,Gilbert,Arizona,85296-7832,United States,,,6023395014,http://www.12westbrewing.com,Arizona,3000 E Ray Rd Bldg 6
0faa0fb2-fffa-416d-9eab-46f67477c8ef,12 West Brewing Company - Production Facility,micro,,,,Mesa,Arizona,85207,United States,-111.5860662,33.436188,,,Arizona,
e54c2f02-acd6-4172-861d-fcfa54c8701a,122 West Brewing Co,closed,2416 Meridian St,,,Bellingham,Washington,98225-2405,United States,-122.485982,48.7621709,3603063285,https://www.122westbrew.com/,Washington,2416 Meridian St
d5cb896d-3e99-4e19-9693-5e06ce987e53,127 Brewing,micro,3090 Shirley Dr,,,Jackson,Michigan,49201-7010,United States,-84.43116792,42.28667212,5172581346,,Michigan,3090 Shirley Dr
06e9fffb-e820-45c9-b107-b52b51013e8f,12Degree Brewing,brewpub,820 Main St,,,Louisville,Colorado,80027-1865,United States,-105.1319826,39.9782443,3035791004,http://www.12degree.com,Colorado,820 Main St
50521ef7-f543-4c5d-98b1-0d0ee1a2be01,12welve Eyes Brewing,micro,141 E 4th St Ste LL2,,,Saint Paul,Minnesota,55101-1639,United States,,,6514938106,http://www.12welveEyes.com,Minnesota,141 E 4th St Ste LL2
950180bd-29c9-46b3-ad0c-e6f09799ec7f,13 Below Brewery,micro,7391 Forbes Rd,,,Cincinnati,Ohio,45233-1013,United States,-84.70634815,39.12639764,5139750613,http://www.13belowbrewery.com,Ohio,7391 Forbes Rd
45119c56-345b-4adc-b481-c5cf7bfe98c4,13 Stripes Brewery,brewpub,"250 Mill St, Suite PW3101",,,Taylors,South Carolina,29687,United States,,,8643491430,http://www.13StripesBrewery.com,South Carolina,"250 Mill St, Suite PW3101"
936c3d7e-5d54-4459-b72c-117cdda059b4,13 Virtues Brewing Co,brewpub,6410 SE Milwaukie Ave,,,Portland,Oregon,97202-5518,United States,-122.6487531,45.4762536,5032393831,http://www.13virtuesbrewing.com,Oregon,6410 SE Milwaukie Ave
5c53b314-ebab-4e3e-89be-e4139d9318ae,1323 R & D,micro,1323 Capital Blvd 1323 R and D,,,Raleigh,North Carolina,27603-1117,United States,,,9199775654,http://www.1323rnd.com,North Carolina,1323 Capital Blvd 1323 R and D
4788221a-a03b-458c-9084-4cadd69ade6d,14 Cannons Brewing Company,micro,31125 Via Colinas Ste 907,,,Westlake Village,California,91362-3974,United States,-118.802397,34.15334,8186996165,http://14cannons.com,California,31125 Via Colinas Ste 907
b7b68d22-5045-4501-b9bf-ec94946eaffc,14 Lakes Brewery,micro,,,,Crosslake,Minnesota,56442,United States,,,2186924129,,Minnesota,
4b677b60-fef1-42e2-90ef-dadc1bd7fb06,14er Brewing Company,proprietor,2801 Walnut St,,,Denver,Colorado,80205-2235,United States,-104.9839636,39.7614112,7207731437,http://www.14erBrewing.com,Colorado,2801 Walnut St
6c53984f-fac1-4ea7-9c44-44e25897c71a,14th Star Brewing,micro,133 N Main St Ste 7,,,Saint Albans,Vermont,05478-1735,United States,,,8025285988,http://www.14thstarbrewing.com,Vermont,133 N Main St Ste 7
85192a9c-58a4-48c3-bd9d-496d09d22aa3,16 Lots Brewing,brewpub,753 Reading Rd,,,Mason,Ohio,45040-1303,United States,-84.3183801,39.3545967,5134863672,http://www.16lots.com,Ohio,753 Reading Rd
284b44f8-6ccb-4cd6-8d06-f2ad882a47c3,16 Mile Brewing Co,micro,413 S Bedford St,,,Georgetown,Delaware,19947-1849,United States,-75.37816436,38.6788938,3022538816,http://www.16milebrewery.com,Delaware,413 S Bedford St
ee6d39c6-092f-4623-8099-5b8643f70dbe,16 Stone Brewpub,brewpub,9542 Main St,,,Holland Patent,New York,13354,United States,-75.2565195,43.24211175,3158658500,http://www.16stonebrewpub.com,New York,9542 Main St
d35b40b0-a3ff-4878-a6ee-9caa2149b521,"1623 Brewing CO, llc",contract,1146 colonel Joshua Ct,,,Westminister,Maryland,21157,United States,,,,,Maryland,1146 colonel Joshua Ct
84bd3b3c-bd2d-4e07-bc31-b43a8c8ebf4c,1717 Brewing Co,micro,322 E Court Ave,,,Des Moines,Iowa,50309-2015,United States,-93.6120353,41.5872267,5152437868,http://1717brewing.com,Iowa,322 E Court Ave
f41a0c47-ba9b-4547-bfed-fcbefe0fc74b,1718 Ocracoke Brewing,brewpub,1129 Irvin Garrish Hwy,,,Ocracoke,North Carolina,27960,United States,-75.97176063,35.10715368,2529282337,http://www.ocracokebrewing.com,North Carolina,1129 Irvin Garrish Hwy
84d621c4-81a5-44e6-aca7-1566c2e67cc0,1781 Brewing Company,micro,11109 Plank Rd,,,Spotsylvania,Virginia,22553-4258,United States,,,5408412598,,Virginia,11109 Plank Rd
896f26a1-d80e-4790-9287-026a86c1799d,180 and Tapped,micro,2010 A State Ave,,,Coraopolis,Pennsylvania,15108,United States,-80.15020356,40.50984957,4127375273,http://www.180andtapped.com,Pennsylvania,2010 A State Ave
46839a79-b7bf-4733-b91b-ce116d062a57,1817 Brewery,micro,100 B South Olive St,,,okolona,Mississippi,38860,United States,-88.750264,34.001703,6623055907,,Mississippi,100 B South Olive St
1a1b2165-73ed-40aa-b89b-56794d140f22,1840 Brewing Company,micro,342 E Ward St,,,Milwaukee,Wisconsin,53207-1348,United States,-87.90606942,43.00436242,4142364056,http://www.1840brewing.com,Wisconsin,342 E Ward St
fe6b9893-b93e-43d5-a9f6-3e0c89a3f13c,1850 Brewing Company,micro,,,,Mariposa,California,95338,United States,-119.9036592,37.570148,,http://www.1850restaurant.com,California,
b51f3cdf-60ff-4ae1-94a7-76906c7d62eb,18th Street Brewery,micro,5725 Miller Ave,,,Gary,Indiana,46403-2871,United States,-87.26887786,41.59928343,,http://www.18thstreetbrewery.com,Indiana,5725 Miller Ave
add7f978-942e-4d56-b209-c80837a51d69,18th Street Brewery,micro,5417 Oakley Ave,,,Hammond,Indiana,46320-1817,United States,-87.517422,41.61556796,,,Indiana,5417 Oakley Ave
dbde8235-2b55-4d8b-8b1c-438155abe104,1905 Brewing Company,micro,1301 S Chestnut St,,,Assumption,Illinois,62510-8504,United States,-89.0503635,39.5172564,2172549374,http://1905BrewingCompany.com,Illinois,1301 S Chestnut St
4f4b5b34-d572-4dff-a18f-47e507c073e6,1912 Brewing,micro,2045 N Forbes Blvd Ste 105,,,Tucson,Arizona,85745-1444,United States,-110.9927505,32.24673727,5202564851,http://www.1912brewing.com,Arizona,2045 N Forbes Blvd Ste 105
4ccad9b9-f9cf-4d21-b6d5-ab005ee1532d,192 Brewing,micro,7324 NE 175th St,,,Kenmore,Washington,98028-2500,United States,-122.2415652,47.75670075,4254242337,http://www.192brewing.com,Washington,7324 NE 175th St
4a09f017-db8f-42e1-a8ec-a0cd81c28761,1940's Brewing Company,micro,1337 Lincoln Ave Unit 1,,,Holbrook,New York,11741-2275,United States,,,6315334838,http://www.1940sbrewingcompany.com,New York,1337 Lincoln Ave Unit 1
4dcaeaa3-d7cc-4016-9392-5bde4e3a8f4d,1st Republic Brewing Co,micro,39 River Rd Ste 6,,,Essex Junction,Vermont,05452-3879,United States,,,8028575318,http://www.1strepublic-homebrew.com,Vermont,39 River Rd Ste 6
9046adec-ed04-4c60-8043-4a02e9e2dabc,2 Basset Brewery,micro,202 E Main St,,,White Sulphur Springs,Montana,59645-9081,United States,-110.9004865,46.54807609,4065472337,http://www.2bassetbrewery.com,Montana,202 E Main St
8436b02b-9a06-474c-b5eb-8ff9aedf1f99,2 Dogz and A Guy Brewing,micro,228 Church St,,,Montrose,Pennsylvania,18801-1271,United States,-75.8800318,41.8336364,5704320069,http://2dogzandaguybrewing.com,Pennsylvania,228 Church St
2005a2bb-0f89-4520-8553-f79cf0b4c909,2 Feet Brewing Company,brewpub,80 Columbia St,,,Bangor,Maine,04401-6319,United States,-68.77283099,44.80012684,2075731979,http://www.2feetbrewing.com,Maine,80 Columbia St
d30841d8-0152-469f-9a19-1b97a5f965a6,2 HALFS Brewing Distilling,micro,2 Stokes Avenue,,,Alexandria,NSW,2015,Australia,151.1979,-33.902839,+61 2 8068 0915,https://2halfs.com.au/,NSW,2 Stokes Avenue
6948c755-a504-42f9-88e8-d04d027731e5,2 Row Brewing,micro,6856 S 300 W,,,Midvale,Utah,84047-1083,United States,-111.9007652,40.5950202,8019878663,http://www.2rowbrewing.com,Utah,6856 S 300 W
fb2460bb-d6bb-4690-a700-f0b5628cc7dd,2 Silos Brewing Company,micro,9925 Discovery Blvd,,,Manassas,Virginia,20109,United States,,,7034202257,http://www.2silosbrewing.com,Virginia,9925 Discovery Blvd
836cb05e-ee8f-4798-859e-fe0bedb0186a,2 Tones Brewing Co.,micro,4539 E Broad St,,,Whitehall,Ohio,43213-1308,United States,-82.9118174,40.0030689,,http://www.2tonesbrewingco.com,Ohio,4539 E Broad St
5ec3b488-48bd-49a7-9828-05bd90195cd5,2 Tread Brewing Co,brewpub,1018 Santa Rosa Plz,,,Santa Rosa,California,95401-6399,United States,-122.7167729,38.4387767,4152330857,http://www.2treadbrewing.com,California,1018 Santa Rosa Plz
8624d11b-8593-49a8-89b4-c46a0f111cd7,2 Way Brewing Company,brewpub,18 W Main St,,,Beacon,New York,12508-2512,United States,-73.9809868,41.5082102,8452027334,http://www.2waybrewingcompany.com,New York,18 W Main St
5cda93ce-6b16-4374-9d43-bb4383be0187,2 Witches Winery and Brewing Company,micro,209 Trade St,,,Danville,Virginia,24541-3545,United States,-79.42125553,36.58590349,4345492739,http://www.2witcheswinebrew.com,Virginia,209 Trade St
64a48d9e-08e9-45e3-83ca-f00d24bb7e49,20 Corners Brewing LLC,brewpub,14148 NE 190th St Ste A,,,Woodinville,Washington,98072-8437,United States,-122.1517007,47.76864301,4253755223,http://www.20cornersbrewing.com,Washington,14148 NE 190th St Ste A
c018299b-db2d-438b-b58c-ecaa0f07a0df,210 Brewing Co,brewpub,3438 Stoluckquamish Ln,,,Arlington,Washington,98223-9056,United States,-122.18421,48.215096,3604749740,http://www.angelofthewind.com,Washington,3438 Stoluckquamish Ln
00fdce16-e1dd-4678-87f2-45550f9083e1,212 Brewing Company,contract,21476 Route 23,,,Davenport,New York,13750,United States,,,2123779050,,New York,21476 Route 23
46a8ed58-5d1a-413e-871e-d2d29d6d43f0,217 Brew Works,micro,217 South St S,,,Wilson,North Carolina,27893-4911,United States,-77.9120318,35.7227625,2529916959,,North Carolina,217 South St S
63baab9a-b561-4eff-8619-f95290a61b77,21st Amendment Brewery,regional,2010 Williams St Unit A,,,San Leandro,California,94577-2334,United States,-122.1772928,37.71130036,5105952111,http://www.21st-Amendment.com,California,2010 Williams St Unit A
8f9621dc-da98-4ddb-82a1-039c9e2b3224,21st Amendment Brewery Cafe,brewpub,563 2nd St,,,San Francisco,California,94107-1411,United States,-122.3925769,37.782448,4153690900,http://www.21st-amendment.com,California,563 2nd St
84337872-75da-4cdd-9f8f-1e1691f21642,21st St Brewers Bar,brewpub,2017 Chouteau Ave,,,Saint Louis,Missouri,63103,United States,-90.213781,38.624291,3142416969,http://www.21stbrew.com,Missouri,2017 Chouteau Ave
2711c5ad-83cb-4917-932e-b8bbf1a25ffb,23 Brewing Company / Lizzie B's Cafe,brewpub,2010 KY Route 321,,,Prestonsburg,Kentucky,41653-9103,United States,,,6068862844,http://www.23brewingcompany.com,Kentucky,2010 KY Route 321
e05dc493-284f-4ece-995e-19899398f077,238 Brewing Company,closed,10321 E Day Mt Spokane Rd,,,Mead,Washington,99021,United States,,,5092382739,http://www.238brewing.com,Washington,10321 E Day Mt Spokane Rd
29c73154-9117-4f27-98e1-b5bb5f69c055,23rd Ave Brewery,micro,2313 S Jackson St,,,Seattle,Washington,98144-2340,United States,-122.301811,47.599163,2066792048,https://23rd-ave-brewery.square.site,Washington,2313 S Jackson St
c70c8ad5-4bfa-4b2a-a383-7e7d15e0baf9,23rd Street Brewery,brewpub,3512 Clinton Pkwy,,,Lawrence,Kansas,66047-2145,United States,-95.28093353,38.9429674,7858562337,http://www.brew23.com,Kansas,3512 Clinton Pkwy
6751228c-5373-4a54-8d68-72df6849a437,26 Degree Brewing Company,micro,2600 E Atlantic Blvd,,,Pompano Beach,Florida,33062-4940,United States,-80.1224169,26.2316338,9545326964,,Florida,2600 E Atlantic Blvd
e0444512-54a6-4a44-b5bb-0f9b88326454,27 South Brewing,micro,44 Milsom Street,3,,Coorparoo,QLD,4151,Australia,153.0567537,-27.4869498,,http://www.27southbrewing.com.au/,QLD,44 Milsom Street
d6e77d51-2fa2-44cb-89b3-c94bf1dc77df,28th State Brewing,planning,,,,Houston,Texas,77095-6933,United States,,,,https://www.instagram.com/28thstatebrew/?hl=en,Texas,
7d13ee75-e7e3-4623-862a-43a18dd6a1ae,2C Family Brewing Co.,micro,1215 1st St S,,,Nampa,Idaho,83651-3957,United States,-116.559282,43.578989,2084753981,,Idaho,1215 1st St S
5fdcc498-f9df-4fa5-b35d-487a59f0fecc,2Kids Brewing Company,micro,8680 Miralani Dr Ste 123,,,San Diego,California,92126-6391,United States,-117.137429,32.896584,8584805437,http://www.2kidsBrewing.com,California,8680 Miralani Dr Ste 123
be0ec266-d637-42e4-94ba-4ce21e456054,2nd Shift Brewing Co,brewpub,1601 Sublette Ave,,,Saint Louis,Missouri,63110-1924,United States,-90.280526,38.621943,6187910728,http://www.2ndshiftbrewing.com,Missouri,1601 Sublette Ave
fb8eee34-da8a-42b2-bc4c-77020024a7f0,2nd Story Brewing Company,brewpub,117 Chestnut St Frnt,,,Philadelphia,Pennsylvania,19106-4700,United States,,,2673145770,http://www.2ndstorybrewing.com/,Pennsylvania,117 Chestnut St Frnt
3cf2698f-4193-4591-aab3-a8ef0fbedcab,2SP Brewing Company,micro,120 Concord Rd,,,Aston,Pennsylvania,19014-2909,United States,,,4844837860,http://www.2spbrewing.com,Pennsylvania,120 Concord Rd
9fdb80f1-a96f-4dc4-80a2-5b0d9a246916,3 Beards Beer Company,contract,4 Main St,,,Williamsburg,Massachusetts,01096,United States,-72.7305059,42.3923659,6173837039,http://www.3beardsbeer.com,Massachusetts,4 Main St
065200ec-51cf-4612-b1b9-61f7db489c3c,3 Daughters Brewing,micro,222 22nd St S,,,Saint Petersburg,Florida,33712-1240,United States,-82.6629721,27.76899022,7274956002,http://www.3dbrewing.com,Florida,222 22nd St S
60c00c0b-b797-4f6a-b442-3bfbaec156ca,3 Disciples Brewing,micro,,,,Sebastopol,California,95472-5937,United States,-122.8332502,38.3845125,7072287309,http://www.3disciplesbrewing.com/home,California,
a1887b5a-0c21-43cf-9547-527b7c11dcf4,3 Freaks Brewing Co,micro,7140 E County Line Rd,,,Highlands Ranch,Colorado,80126-3926,United States,-104.9426656,39.5659575,7202990994,http://www.3freaksbrewery.com,Colorado,7140 E County Line Rd
a74744eb-ca98-43c5-9199-09df39f8b400,3 Iron Brewing Company,micro,898 Via Lata Ste A,,,Colton,California,92324-3920,United States,-117.3066993,34.05616889,9095334892,http://www.3ironbrewingco.com,California,898 Via Lata Ste A
1218736c-bfcf-4b95-b473-7399aaf60d1d,"3 Keys Brewing Company, LLC",brewpub,2505 Manatee Ave E,,,Bradenton,Florida,34208-2421,United States,-82.53393502,27.49645026,9412180396,http://www.3keysbrewing.com,Florida,2505 Manatee Ave E
ed387340-ea78-4f65-9de0-15e2da50371e,3 Nations Brewing,micro,2405 Squire Pl Ste 200,,,Farmers Branch,Texas,75234-4714,United States,-96.89883128,32.93044336,4696607184,http://www.threenationsbrewing.com,Texas,2405 Squire Pl Ste 200
50f26a2b-242d-40af-b78b-cf975ce37761,3 Ravens,micro,260 Dundas Street,,,Thornbury,VIC,3071,Australia,145.026872,-37.755894,+61 424 707 592,https://3ravens.com.au/index,VIC,260 Dundas Street
a8fda9a9-026b-4b15-86b9-62b4ccb126c1,3 Sheeps Brewing Co,micro,1837 North Ave,,,Sheboygan,Wisconsin,53083-4620,United States,-87.73006524,43.77384561,9209469715,http://www.3sheepsbrewing.com,Wisconsin,1837 North Ave
5595bb24-e2b8-4a6e-9f0b-451fac8dd903,3 Sheets Brewery,micro,136 W 1st Ave,,,Albany,Oregon,97321,United States,,,5416190183,http://www.3sheetsbrewery.com,Oregon,136 W 1st Ave
e2ddeea8-03d4-43e7-bfd0-d27797b9d016,3 Sons Brewing Co.,proprietor,236 N Federal Hwy,,,Dania,Florida,33004-2870,United States,-80.14361029,26.04800238,9546013833,http://www.3sonsbrewingco.com,Florida,236 N Federal Hwy
bd8b76ca-a70a-4363-96cb-24f1d0118a74,3 Stars Brewing Co,micro,6400 Chillum Pl NW Ste B,,,Washington,District of Columbia,20012-2111,United States,,,2026700333,http://www.3starsbrewing.com,District of Columbia,6400 Chillum Pl NW Ste B
cb56e27e-d113-4f74-925a-69305a56d082,3 Trails Brewing Co,micro,111 N Main St ,,,Independence,Missouri,64050,United States,-94.41265,39.122385,8168866256,http://www.3trailsbrewing.com,Missouri,111 N Main St 
6c5dabed-6a59-4610-abc9-b1e958393186,30 Mile Brewing Co.,closed,39 Ragged Rock Rd Unit 5,,,Old Saybrook,Connecticut,06475-1518,United States,,,8603395238,http://www.30milebrewingco.com,Connecticut,39 Ragged Rock Rd Unit 5
2f6062af-4d6f-42b2-b4ad-626cf01a1fec,300 Suns Brewing Company,brewpub,335 1st Ave Unit C,,,Longmont,Colorado,80501-5958,United States,,,,http://www.300sunsbrewing.com,Colorado,335 1st Ave Unit C
3b0b5b9b-f6d8-49e3-8ebd-0bcef6939bcd,32 North Brewing Co,brewpub,8655 Production Ave Ste A,,,San Diego,California,92121-2258,United States,-117.1649842,32.88313237,(619) 363-2622,https://42northbrewing.com,California,8655 Production Ave Ste A
a964a343-e4f1-40d8-9353-09ef9b74f513,34 Degree North Experiment Station,micro,4802 Main St,,,Shallotte,North Carolina,28470,United States,-78.38636517,33.97270364,,,North Carolina,4802 Main St
098595c2-f606-40b4-9b49-195f73fb6fd6,350 Brewing Co,brewpub,7144 183rd St,,,Tinley Park,Illinois,60477-3933,United States,-87.79160288,41.55864726,7088257339,http://www.350brewing.com,Illinois,7144 183rd St
63969ec8-b557-4c71-b993-ad00c99ab70e,360 Degree Brewing Company,micro,Bluebell Business Estate,,,Sheffield Park,East Sussex,TN22 3HQ,England,-0.00086,50.993912,1825722375,https://www.360degreebrewing.com/,East Sussex,Bluebell Business Estate
55de8d28-4231-4497-8ff7-3031e7bb3be5,38 State Brewing,micro,8071 S Broadway Ste A,,,Littleton,Colorado,80122-2730,United States,,,7206383678,http://www.38statebrew.com,Colorado,8071 S Broadway Ste A
53305a0f-9b51-4f73-bf5e-88bb0439b216,380 Brewing Company,planning,,,,Clancy,Montana,59634,United States,,,2065796509,,Montana,
b84d47b5-43a1-4a05-9ee4-e795dfbf019c,3806 Brewing,micro,12 Enterprise Avenue,,,Berwick,VIC,3806,Australia,145.3416748,-38.0371856,+61 477 581 483,http://3806.beer/,VIC,12 Enterprise Avenue
dfa3f8fc-21cf-443d-ba8d-8adfc6873852,38Â°-75Â° Brewing,brewpub,2000 Coastal Highway STE 105,,,Rehoboth Beach,Delaware,19971,United States,-75.090191,38.7074994,3022278519,,Delaware,2000 Coastal Highway STE 105
842d193f-7a1b-4960-86f8-7d6614884005,3cross Fermentation Cooperative,micro,4 Knowlton Ave,,,Worcester,Massachusetts,01603,United States,-71.83057593,42.24364875,5086158195,http://www.3cross.coop,Massachusetts,4 Knowlton Ave
4f70ac94-eca5-4cec-8581-92ec5afdf4f2,3Halves Brewing Co,brewpub,110 E Kansas St,,,Liberty,Missouri,64068-2374,United States,-94.4190247,39.2461993,8164296886,http://www.3halvesbrewingco.com,Missouri,110 E Kansas St
694547f5-28fd-4363-bad6-03b6eaf0f1dd,3rd Degree Brewhouse,micro,1625 N Main St,,,Fuquay Varina,North Carolina,27526,United States,-78.794223,35.5914556,9192015457,http://www.facebook.com/3rddegreebrewhouse/,North Carolina,1625 N Main St
370fdc3b-55a0-43f0-a54e-f617a7cec7b8,3rd Planet Brewing,micro,120 Partin Dr N,,,Niceville,Florida,32578-2053,United States,,,8505029952,http://www.facebook.com/3rdplanetbrewing/,Florida,120 Partin Dr N
3c9354c5-4d21-40a8-8e53-8f2f9b5e043b,3rd Rock Brewing Company,micro,134 Industrial Park Dr,,,Trenton,North Carolina,28585-9593,United States,-77.36749285,35.06939877,2526319213,http://www.3rockbrew.com,North Carolina,134 Industrial Park Dr
2eed7840-ec52-48b5-b22e-d9d76bd01929,3rd Turn Brewing,micro,10408 Watterson Trl,,,Louisville,Kentucky,40299-3702,United States,-85.56656078,38.19322725,,http://www.3rdturnbrewing.com,Kentucky,10408 Watterson Trl
781bda70-39b2-4f3f-9213-9d0f44c08991,3rd Wave Brewing Co,micro,501 N Bi State Blvd,,,Delmar,Delaware,19940-1106,United States,,,3029070423,http://www.3rdwavebrewingco.com,Delaware,501 N Bi State Blvd
a00c1c11-dede-4d7f-a514-bd291b6db283,3TREE BREWERY,micro,3-19 Futabacho,,,Ibaraki,Osaka,567-0829,Japan,135.5780968,34.81744613,,https://3tree-brewery.jimdosite.com/,Osaka,3-19 Futabacho
b72f2ce6-e062-404d-ac31-c1060db2d870,4 By 4 Brewing Company,micro,2811 E Galloway St Ste A,,,Springfield,Missouri,65804-4601,United States,-93.239889,37.147986,4178616400,http://www.4by4brewingcompany.com,Missouri,2811 E Galloway St Ste A
ac2f41ed-e1e8-4586-aa78-253543db7714,4 Hands Brewing Co,regional,1220 S 8th St,,,Saint Louis,Missouri,63104-3610,United States,-90.19762012,38.61526593,3144361559,http://www.4handsbrewery.com,Missouri,1220 S 8th St
dc652569-19d7-4f63-a999-3e8d5d6798c1,4 Noses Brewing Company,micro,8855 W 116th Cir Ste 3,,,Broomfield,Colorado,80021-2521,United States,,,7204602797,http://4nosesbrewing.com,Colorado,8855 W 116th Cir Ste 3
cbcca8ac-55f6-47cb-967f-1a77dfa959e5,4 Pines,large,,,,Richmond,VIC,3121,Australia,144.9901574,-37.824664,,,VIC,
7c669ae6-460d-476b-bc56-0b4d566a152c,4 Stitch Brewing Co - Brewery & Taproom,taproom,16709 9th Ave SE,,,Mill Creek,Washington,98012-6309,United States,-122.21991381534,47.84671432549,4252247583,https://www.4stitchbrewing.com,Washington,16709 9th Ave SE
b237e2d5-dabc-41f9-a3ff-2b4e3f3a9c8e,4 Stitch Brewing Co - Taproom & Kitchen,brewpub,5817 238th St SE Ste 3,,,Woodinville,Washington,98072-8669,United States,-122.15488674812,47.782473284418,4252866004,https://www.4stitchbrewing.com,Washington,5817 238th St SE Ste 3
d4c7fb43-6671-4597-8cdd-e938d751aca2,400 North Brewing,planning,,,,Sugarhill,Georgia,30518-7916,United States,,,4047911119,http://400northbrewing.com,Georgia,
9c3f919e-e6de-4e43-91cb-30f3e73ad591,406 Brewing Company,micro,"101 E Oak St,Â Ste D",,,Bozeman,Montana,59715-2967,United States,,,4065853745,http://www.406brewingcompany.com,Montana,"101 E Oak St,Â Ste D"
b7f2ebb8-6764-4654-a98b-246724c8952a,411 Broadway Ales,planning,,,,Fresno,California,93721-2801,United States,-119.7088613,36.7295295,5412706076,,California,
ef60f8cf-0fdc-4ea1-aa94-09e1f869176b,412 Brews,brewpub,706 Island Ave,,,Mc Kees Rocks,Pennsylvania,15136-3287,United States,,,,http://www.412brews.com,Pennsylvania,706 Island Ave
dad10840-28ab-4dcf-9005-bf2cc2665b5a,42 North Brewing Company,brewpub,25 Pine St,,,East Aurora,New York,14052-1827,United States,-78.607989,42.769311,7168057500,http://www.42northbrewing.com,New York,25 Pine St
52dd0878-928b-4b47-b7fa-602f140592ed,4204 Main Street Brewing Co,brewpub,4204 W Main St,,,Belleville,Illinois,62226,United States,-90.02053343,38.53796122,6184167261,,Illinois,4204 W Main St
1d3084b5-c9bc-4380-9862-14e837b82bb9,45 Degree Brewhouse,micro,10421 E Sprague Ave,,,Spokane Valley,Washington,99206-3629,United States,-117.264473,47.657478,5092413281,http://45degreebrewhouse.com,Washington,10421 E Sprague Ave
eb3d0c66-bbe8-495d-a876-924f0c0cf509,450 North Brewing Company @ Simmons Winery,brewpub,8111 E 450 N,,,Columbus,Indiana,47203-8106,United States,,,8125460091,http://www.450northbrewing.com,Indiana,8111 E 450 N
6b892c61-269b-453f-acd1-b79491b0ef0b,47 Hills Brewing Co,brewpub,137 S Linden Ave,,,South San Francisco,California,94080-6410,United States,-122.4136168,37.64425595,6508678476,http://47hillsbrewingcompany.com,California,137 S Linden Ave
cd97aeab-a499-4c95-b20b-881bfe3ed6c8,49th State Brewing Co,micro,248.4 Parks Hwy 5 Mile,,,Healy,Alaska,99743,United States,-149.017877,63.864759,9076832739,https://www.49statebrewing.com/denali,Alaska,248.4 Parks Hwy 5 Mile
eaa4afea-bcb5-434c-839e-ef48fe8811d0,49th State Brewing Co - Anchorage,brewpub,717 W 3rd Ave,,,Anchorage,Alaska,99501-2104,United States,-149.8958196,61.2197366,9076832739,http://www.49statebrewing.com/,Alaska,717 W 3rd Ave
dbf0d7e7-4e2c-4574-9dee-791d95496811,4B's Brewery,brewpub,215 W Main St,,,Cedaredge,Colorado,81413-3339,United States,-107.925782,38.900614,9708567762,http://www.4bsbrewery.com,Colorado,215 W Main St
aea0a6f9-557e-4907-be23-d80737a071e4,4J Brewing Company,micro,1348 Cedar Post Ln.,,,Houston,Texas,77055,United States,,,7136780776,https://4jbrewingcompany.com,Texas,1348 Cedar Post Ln.
53efe9e9-dbb3-4c98-ab77-61515abef2a9,4kd Crick Brewery,brewpub,211 Carpenter Rd,,,Defiance,Ohio,43512-1718,United States,-84.341647,41.296252,4199562863,http://Www.4kdcrickbrewery.com,Ohio,211 Carpenter Rd
760e8395-f2a2-4161-9bf1-c72ed1aa6ae3,4th Tap Brewing Cooperative,micro,10615 Metric Blvd,,,Austin,Texas,78758-4520,United States,-97.7118913,30.3852024,5129089817,,Texas,10615 Metric Blvd
d8b4ad26-346b-40dd-8215-b0e89ace23e2,5 Alarm Brewing Co,micro,211 W Main St,,,Lake Mills,Iowa,50450,United States,-93.53398788,43.41926615,6415922739,,Iowa,211 W Main St
c17a3e56-4d4e-405e-a21b-85f415903674,5 Lakes Brewing Co.,brewpub,1638 142nd Ave,,,Dorr,Michigan,49323-9312,United States,-85.70445518,42.72497157,6163599555,http://www.5lakesbrewing.com,Michigan,1638 142nd Ave
75eff8e1-7c25-483a-a2b2-49ecdbf16d31,5 Lamps Brewery,regional,84-87 Camden St.,Saint Kevin's,Dublin 2,Dublin,Dublin,D02 DH36,Ireland,-6.26585621,53.33596635,,https://the5lampsbrewery.com/home/,Dublin,84-87 Camden St.
257e9aac-7dbe-4656-b366-9d8a94c49d58,5 North Brewing Company,closed,6501 N Cedar Rd,,,Spokane,Washington,99208,United States,-117.4328496,47.71758683,5093217818,http://5northbrewingcompany.com/,Washington,6501 N Cedar Rd
f927d8d6-3151-4073-9d20-410ca617853e,5 Rabbit Cerveceria Inc,micro,6398 W 74th St,,,Chicago,Illinois,60638-6129,United States,-87.6572069,41.7595502,3128959591,http://www.5rabbitbrewery.com,Illinois,6398 W 74th St
5c99b790-e00d-4ca6-86a5-37723f728690,5 Rights Brewing Co,micro,1514 3rd St,,,Marysville,Washington,98270,United States,-122.1762906,48.05156015,4253341026,http://www.5rightsbrewing.com,Washington,1514 3rd St
2af85509-aee5-46bc-ab1a-fd9b8b0026d4,5 Rivers Brewing LLC,planning,,,,Spanish Fort,Alabama,36527-3161,United States,-87.9152724,30.6749127,2516897483,http://5riversbrewing.com,Alabama,
80c395e8-28c8-460a-9cc5-721fcc22410f,5 Seasons Brewing Co - Prado,brewpub,5600 Roswell Rd,,,Sandy Springs,Georgia,30342-1150,United States,-84.3796711,33.9078086,4042555911,http://www.5seasonsbrewing.com,Georgia,5600 Roswell Rd
baad8dd7-b295-480c-8f64-e499562a3662,5 Seasons Brewing Co - Westside,brewpub,1000 Marietta St NW Ste 204,,,Atlanta,Georgia,30318-0683,United States,,,4048753232,http://www.5seasonsbrewing.com,Georgia,1000 Marietta St NW Ste 204
83d47922-0a23-4b85-9c1c-d50b9135d64a,5 Stones Artisan Brewery,micro,11335 Farm To Market Road 1863,,,New Braunfels,Texas,78132,United States,-98.232345,29.711365,2103808215,,Texas,11335 Farm To Market Road 1863
fafc2e23-c3bf-46d3-87c0-00e92209269b,515 Brewing Co,micro,7700 University Ave,,,Clive,Iowa,50325-1271,United States,-93.7228408,41.599992,5156614615,http://www.515brewing.com,Iowa,7700 University Ave
7e12d827-22dc-4d07-8715-8192c9680b23,5150 Brewing At The Brass Tap Rocklin,micro,5150 Commons Dr Ste 101,,,Rocklin,California,95677-3925,United States,-121.207331,38.8047402,9162462729,http://www.brasstaprocklin.com,California,5150 Commons Dr Ste 101
132540a2-23c8-4720-8c58-31292d264c4a,51st State Brewing Company,brewpub,115 Harding Ave,,,Kingsford,Michigan,49802-3815,United States,-88.08819,45.808408,9068282167,http://www.51ststatebrewingcompany.com,Michigan,115 Harding Ave
5858b701-9e27-44e6-8ab8-b950b72c4181,51st Ward Beer Company,contract,323 N Washington St,,,Westmont,Illinois,60559-1512,United States,-87.981157,41.804494,7732205899,,Illinois,323 N Washington St
4d878d25-a8fb-49e7-93da-56d229bf46ff,54-40 Brewing Company,brewpub,3801 S Truman Rd Ste 1,,,Washougal,Washington,98671-2589,United States,-122.3269349,45.56577849,3609077062,http://www.54-40brewing.com,Washington,3801 S Truman Rd Ste 1
126f87c3-1c6d-4ff0-b35c-c8dfa9a8e1b4,550 Brewing,proprietor,119 E Chuska St,,,Aztec,New Mexico,87410-2110,United States,-107.9950235,36.8213739,5054861094,http://Www.550brew.com,New Mexico,119 E Chuska St
4a4baf4f-921c-46c0-9130-afcc4ce4f4d2,559 Local Brewing,micro,608 4th St,,,Clovis,California,93612-1183,United States,-119.7017487,36.82517171,5594731875,http://www.fresnobrewingcompany.com,California,608 4th St
b0d5d69d-b439-44a6-ab3e-0cbd15658dc7,56 Brewing,micro,3055 Columbia Ave NE Ste 102,,,Minneapolis,Minnesota,55418-1860,United States,,,6124040056,http://www.56brewing.com,Minnesota,3055 Columbia Ave NE Ste 102
f4a902c1-e5a6-43da-b3e4-a1ffc97d31a9,5770 Brewery,micro,303A W Main St,,,Teutopolis,Illinois,62467-1355,United States,-88.47806652,39.13142194,6183397841,http://www.5770brewery.com,Illinois,303A W Main St
90d1fa86-77d7-4a21-9818-e338fa6fdb96,583 양조장(583 Brewery),brewpub,"583-8, Uiam-ro",Janggye-myeon,,Jangsu-gun,Jeollabukdo,55621,South Korea,127.6205123,35.68271721,063-353-5515,http://www.583beer.modoo.at,Jeollabukdo,"583-8, Uiam-ro"
eaf55668-8444-4e4f-80c2-b9f32f7e4d83,5th Element Brewing,planning,,,,Leander,Texas,78641-4009,United States,,,9156378199,,Texas,
cc8de428-9663-466c-bae8-73ad9edf0892,5th Line Brewing Co,micro,1015 E Lincoln Ave Ste 106,,,Yakima,Washington,98901-2534,United States,-120.4930458,46.61136701,5093676300,https://5thlinebrewing.com/,Washington,1015 E Lincoln Ave Ste 106
849d5961-83c5-4115-9ae4-c0e93c8d3a7f,5x5 Brewing Co.,planning,,,,Mission,Texas,78572-6215,United States,,,9565291353,http://www.5x5brewing.com,Texas,
e2bb50c4-260f-4f42-8306-392f7bd5f4ba,6 & 40 Brewery/Taproom,planning,,,,Lakewood,Colorado,80215-5548,United States,-105.1100582,39.6311085,3032325347,http://www.tomsbrewshop.com,Colorado,
e5992621-3c91-4968-b913-85972aa66fbb,"6 Bears & A Goat Brewing Company, LLC",brewpub,1140 International Pkwy,,,Fredericksburg,Virginia,22406-1126,United States,,,54035690562,http://www.6bgbrewingco.com,Virginia,1140 International Pkwy
76ee21a3-d4bd-4526-9ef8-5a23a4507566,6 Bridges Brewing,planning,,,,Johns Creek,Georgia,30097,United States,,,7708460292,http://www.sixbridgesbrewing.com,Georgia,
6f431fe7-b136-444b-84e3-3a2042903d93,6 Degrees of Separation,brewpub,35 Main St,,,Ossining,New York,10562-4662,United States,-73.86768188,41.15866213,9144325969,http://www.6degreesbp.com,New York,35 Main St
ddf69cff-978e-47b6-b42e-75f102418bd0,603 Brewery,micro,12 Liberty Dr Unit 7,,,Londonderry,New Hampshire,03053-2286,United States,,,6036307745,http://www.603brewery.com,New Hampshire,12 Liberty Dr Unit 7
62871bbc-a963-4c09-9eff-eb36ade49fd7,608 Brewing Company,micro,83 Copeland Ave,,,La Crosse,Wisconsin,54603-3403,United States,-91.249927988566,43.825963955898,,http://www.608brewingcompany.com,Wisconsin,83 Copeland Ave
f3e9ba4b-0246-44ac-9170-f095d19e8d64,612 Brew,micro,945 Broadway St NE,,,Minneapolis,Minnesota,55413-1471,United States,-93.2062058,45.000631,6129648939,http://www.612brew.com,Minnesota,945 Broadway St NE
af6cb069-b61a-4c69-8fd2-0a5f87c11a17,6th and La Brea,brewpub,600 South La Brea Ave,,,Los Angeles,California,90036,United States,-118.3440213,34.0730485,,http://www.6thlabrea.com,California,600 South La Brea Ave
6a928a00-bf8e-4481-ae27-a2a5b14f56e2,7 Devils Brewing Co,brewpub,247 S 2nd St,,,Coos Bay,Oregon,97420-1642,United States,-124.2147508,43.36654751,5418083738,http://www.7devilsbrewery.com,Oregon,247 S 2nd St
8824022a-0fd9-4727-b6fa-b7aaf65eb043,7 Hermits Brewing Company,brewpub,PO Box 3186,,,Eagle,Colorado,81631-3186,United States,,,9704714979,http://www.7hermitsbrewing.com,Colorado,PO Box 3186
e861ea88-9815-48a0-84ba-d2a1929178e7,7 Hills Brewing Company,brewpub,1085 Washington St,,,Dubuque,Iowa,52001-4932,United States,-90.6635263,42.5045556,5635878306,http://www.7hillsbrew.com,Iowa,1085 Washington St
4e84a8d0-0d52-431e-a57a-da8977625bd2,7 Locks Brewing,micro,12227 Wilkins Ave,,,Rockville,Maryland,20852-1833,United States,,,3018417123,http://www.7locksbrewing.com,Maryland,12227 Wilkins Ave
84c84db6-1120-4106-a5d3-fd65b9d7303d,7 Mile Brewery,micro,3156 Route 9 South Ste 1-2,,,Rio Grande,New Jersey,08242,United States,,,6093657777,http://www.7milebrew.com,New Jersey,3156 Route 9 South Ste 1-2
745b65a8-d682-465c-a418-0188ce5878c2,7 Seas Brewing Co,micro,2101 Jefferson Ave,,,Tacoma,Washington,98402-1519,United States,-122.4390379,47.242614,2535727771,http://www.7seasbrewing.com,Washington,2101 Jefferson Ave
e062c040-4ff9-46f1-9f3d-172626694cb0,7 Seas Brewing Co - Gig Harbor,taproom,2905 Harborview Dr,,,Gig Harbor,Washington,98335-1910,United States,-122.577347,47.328217,2535148129,https://www.7seasbrewing.com/gig-harbor,Washington,2905 Harborview Dr
a1199657-e4a9-496b-88c3-999f9e7e97e9,7 Sins Brewery,micro,10593 W Main Rd,,,Ripley,New York,14775-9746,United States,-79.7497349,42.24869073,7165812090,http://www.7sinsbrewery.com,New York,10593 W Main Rd
a3a1eac7-b858-4bdd-81ac-c2099b717da2,7 Sisters Brewing Co,brewpub,181 Tank Farm Rd Ste 110,,,San Luis Obispo,California,93401-7082,United States,-120.6706375,35.2467278,8058687133,http://www.7sistersbrewing.com,California,181 Tank Farm Rd Ste 110
3f3220f8-75f8-4fea-a5a4-289aa3267f11,"718BrewCafe, LLP",brewpub,718 Market St,,,Metropolis,Illinois,62960-1634,United States,-88.73129158,37.15373334,6185247180,http://www.718BrewCafe.com,Illinois,718 Market St
c00f57cf-acdd-46da-9269-d182cb87a7e4,734 Brewing Company,micro,15 E Cross St,,,Ypsilanti,Michigan,48198,United States,-83.61103475,42.24586784,7346496453,,Michigan,15 E Cross St
86fc7186-e3a3-42f2-9316-e33c8afa2b8a,7th Day Brewery,micro,9 Powells Road,unit 14,,Brookvale,NSW,2100,Australia,151.2727492,-33.7668139,+61 2 9939 4930,http://www.7thdaybrewery.com.au/,NSW,9 Powells Road
66a91db6-7d2a-4d67-a720-7f924cae3571,7th Settlement Brewery,closed,47 Washington St,,,Dover,New Hampshire,03820-3877,United States,-70.8728379,43.1953787,6033731001,http://www.7thsettlement.com,New Hampshire,47 Washington St
c7b3260a-b441-4dc8-958f-34c045e26f22,7th Wave Brewing,micro,120 N Meadows Rd Ste 8,,,Medfield,Massachusetts,02052-1594,United States,,,6176453397,http://www.7thwavebrewing.com,Massachusetts,120 N Meadows Rd Ste 8
c179a049-9988-4640-821d-ddf349cdd87e,7venth Sun Brewery,micro,1012 Broadway,,,Dunedin,Florida,34698-5762,United States,,,7277333013,http://www.7venthsun.com,Florida,1012 Broadway
4679ff59-8ef6-4443-b6ec-f58232c6b7d7,7venth Sun Tampa,micro,6809 N Nebraska Ave,,,Tampa,Florida,33604-5660,United States,-82.4500207,27.9495902,8132315900,,Florida,6809 N Nebraska Ave
c6a766f9-a187-4e5b-9519-6c737ce0cde5,8 Bit Brewing Company,brewpub,26755 Jefferson Ave Ste F,,,Murrieta,California,92562-6941,United States,-117.1762542,33.53033448,9516772322,http://www.8bitbrewerycompany.com,California,26755 Jefferson Ave Ste F
eef94d73-65e8-4d94-b1de-0d4b45efe090,8-Bit Aleworks,micro,1050 N Fairway Dr Bldg F Ste 10,,,Avondale,Arizona,85323-5206,United States,,,6239251650,http://www.8-bitaleworks.com,Arizona,1050 N Fairway Dr Bldg F Ste 10
745272b9-5d04-4468-b1f7-e76a75c22de9,81 Artisan,micro,Chilgrove Road,Lavant,,Chichester,West Sussex,PO18 9HP,England,-0.81111,50.89212,7990035736,https://81artisan.com/,West Sussex,Chilgrove Road
783c5daa-ea5c-4462-836e-c2846ad3ff4e,81Bay Brewing Company,micro,4465 W Gandy Blvd Ste 600,,,Tampa,Florida,33611-3379,United States,,,8133722739,http://81baybrewco.com,Florida,4465 W Gandy Blvd Ste 600
187f0cfc-1433-4d8c-89c0-5b4151504a71,841 Brewhouse,brewpub,841 E Milwaukee St,,,Whitewater,Wisconsin,53190-2126,United States,-88.71427344,42.8323014,2624738000,,Wisconsin,841 E Milwaukee St
3055793c-9330-4fe1-958b-fef6d2a0e057,8one8 Brewing Company,micro,8951 de Soto Ave,,,Canoga Park,California,91304-5901,United States,-118.5885323,34.2218019,8188352286,http://www.818brewing.com,California,8951 de Soto Ave
2d880e85-5b0f-447b-b1b2-5bcae8a4b130,8th Street Ale Haus,brewpub,1132 N 8th St,,,Sheboygan,Wisconsin,53081-3402,United States,-87.71305702,43.75674392,9202087540,http://www.sheboyganalehaus.com,Wisconsin,1132 N 8th St
1682e94f-73ba-4035-93be-1fb28bb2cee7,8th Ward Brewing Company,planning,,,,Poughkeepsie,New York,12603-3401,United States,,,,,New York,
c2bc693f-906a-46a0-a5f9-82eab2d2845b,8th Wonder Brewery,micro,2202 Dallas St,,,Houston,Texas,77003-3519,United States,-95.3559402,29.7487783,7133970072,http://www.8thwonderbrew.com,Texas,2202 Dallas St
a0a230f6-17b2-4460-8eca-61e57be53ed5,9 White Deer Brewery,micro,Ballymakeera,,,Macroom,Cork,P12 E277,Ireland,-9.146507143,51.936249,35302627110,http://www.9whitedeer.ie/,Cork,Ballymakeera
2b067eab-e0b0-46b6-aaea-e40a62cf632f,903 Brewers,micro,1718 S Elm St,,,Sherman,Texas,75090-8725,United States,-96.60698055,33.61788732,2142438090,http://www.903brewers.com,Texas,1718 S Elm St
de6341a8-881b-4d9f-9335-5e9203e8a2c3,927 Beer Company,micro,821 Cornwall St,,,Cambria,California,93428-2434,United States,-121.0985408,35.5666725,8052035265,http://www.cambriabeerco.com,California,821 Cornwall St
de63f5c7-c340-4095-a302-f35ab8ac7179,93 Octane Brewery,micro,1825 Lincoln Highway,,,Saint Charles,Illinois,60174-4591,United States,-88.333625900834,41.898851100486,6305490332,http://www.93octanebrewery.com,Illinois,1825 Lincoln Highway
b4e012c5-0f36-4d0a-a40b-cbcb29c7ceed,95ate5 Brewpub,brewpub,9585 N Industrial Dr,,,Saint John,Indiana,46373,United States,-87.46380305,41.44400246,2193656506,http://www.95ate5.com,Indiana,9585 N Industrial Dr
42598f85-f02e-474c-9154-0aa4f1d932be,9th Hour Brewing Company LLC,planning,,,,Spring Grove,Illinois,60081-9459,United States,,,,,Illinois,
9aeccd09-8884-4f0e-93f4-c44dacd246aa,A Homestead Brew,micro,26685 486th Ave,,,Valley Springs,South Dakota,57068-7309,United States,-96.49421923,43.51733014,6055535015,http://www.ahomesteadbrew.com,South Dakota,26685 486th Ave
88a7ac77-a52b-4496-91df-b41e5831a568,A Little Madness Brewing Company,planning,,,,Pensacola,Florida,32514-8122,United States,,,,http://www.ALittleMadnessBrewingCompany.com,Florida,
5b627789-ff7e-4890-a7cf-24572bf547a2,Aardwolf Brewing Company,micro,1461 Hendricks Ave,,,Jacksonville,Florida,32207-8622,United States,-81.6545197,30.3108962,9043010755,http://www.aardwolfbrewing.com,Florida,1461 Hendricks Ave
7918a6dd-08d0-4157-a841-01b20a9a7a4c,Abandon Brewing,micro,2994 Merritt Hill Rd,,,Penn Yan,New York,14527-8938,United States,,,5852093276,http://www.abandonbrewing.com,New York,2994 Merritt Hill Rd
5a7b05f9-bf7b-49a2-a1de-0c1fe01b9374,Abandoned Building Brewery,micro,142 Pleasant St Unit 103A,,,Easthampton,Massachusetts,01027-2805,United States,,,4132827062,http://www.abandonedbuildingbrewery.com,Massachusetts,142 Pleasant St Unit 103A
9c7b9f2a-6deb-44a1-9b3e-f83952a4db38,Abbey Brewing Co,contract,1115 16th St,,,Miami Beach,Florida,33139-2441,United States,-80.1402943,25.7890381,3055388110,,Florida,1115 16th St
9c5acc37-15fa-4838-91ee-47bf27a94777,"Abbey Brewing Company, LLC",micro,215 W. Alicante Rd,,,Santa Fe,New Mexico,87505,United States,-105.9465207,35.66555826,5056706802,http://www.abbeybrewing.biz,New Mexico,215 W. Alicante Rd
30d8f77b-aeec-4435-a280-16bacd1b1c97,Aberrant Ales,brewpub,219 W Grand River Ave,,,Howell,Michigan,48843,United States,-83.93094539,42.60773722,5175188699,http://www.aberrantales.com,Michigan,219 W Grand River Ave
b161916f-3f69-4f16-8059-eef9eee6877c,Abide Brewing Company,micro,110 Werz Industrial Blvd Ste 130,,,Newnan,Georgia,30263-5802,United States,-84.76356641,33.40257035,6789726747,http://www.abidebrewing.com,Georgia,110 Werz Industrial Blvd Ste 130
e2fa853c-ca91-4043-878d-0bcee9900ea3,Abigaile,brewpub,1301 Manhattan Ave,,,Hermosa Beach,California,90254-3666,United States,-118.4048656,33.8734519,3107988227,http://abigailrestaurant.com,California,1301 Manhattan Ave
c074ba4c-0b31-4344-a85a-7930df7fb410,Abita Brewing Co,regional,166 Barbee Rd,,,Covington,Louisiana,70433-8651,United States,-90.056477,30.481981,9858933143,http://www.abita.com,Louisiana,166 Barbee Rd
f8ab9530-289b-4684-89f1-474e89f4c5ae,Abjuration Brewing,micro,644 Broadway Ave,,,Mc Kees Rocks,Pennsylvania,15136-3008,United States,,,4127661668,http://www.abjurationbrewing.com,Pennsylvania,644 Broadway Ave
c5f6426e-f894-4bfc-9ffb-43bc0baa0881,Able Baker Brewing,micro,1051 Mary Crest Rd #K,,,Henderson,Nevada,89104,United States,,,7025817742,http://www.ablebakerbrewing.com,Nevada,1051 Mary Crest Rd #K
e6780612-ff74-4289-8718-a229529e3ee1,Able Ebenezer Brewing Company,micro,31 Columbia Cir,,,Merrimack,New Hampshire,03054-4161,United States,-71.493705,42.851742,8442232253,http://www.ableebenezer.com,New Hampshire,31 Columbia Cir
31678502-edf6-4eb0-bc10-4ede5ac279b6,Able Seedhouse and Brewery,micro,1121 Quincy St NE,,,Minneapolis,Minnesota,55413-2773,United States,-93.2510686,44.9993934,6124054642,http://www.ablebeer.com,Minnesota,1121 Quincy St NE
00221d0f-2ed7-41d1-95b8-d8b1bfbc8b0e,Abner's Restaurant Inc / Northern Michigan Beer,brewpub,7528 N Woodbridge (M37),,,Brohman,Michigan,49312,United States,,,2316892295,,Michigan,7528 N Woodbridge (M37)
4db32843-26ff-4e73-9e24-1cb874109b24,Abnormal Beer Company,micro,16990 Via Tazon Ste 123,,,San Diego,California,92127-1649,United States,-117.08575,33.02391,8586182463,http://abnormalbeer.co,California,16990 Via Tazon Ste 123
28e05fda-77a4-4a5a-9f8a-08169ec07ce5,Abolitionist Ale Works,brewpub,129 W Washington St,,,Charles Town,West Virginia,25414-1529,United States,-77.8607888,39.28867207,6812521548,http://www.abolitionistaleworks.com,West Virginia,129 W Washington St
bec6adc5-3a3b-4793-8364-c58f16e88cc8,Abridged Beer Company,brewpub,100 Lockett Rd,,,Knoxville,Tennessee,37919-4807,United States,-84.016459,35.932287,8658989438,http://www.abridgedbeer.com,Tennessee,100 Lockett Rd
9de7f346-3918-4e5c-b59e-a36bf61b0441,ABRU Craft Brewery,micro,15 Pasita Street,Rosenpark,,Bellville,Western Cape,7530,South Africa,18.6533,-33.8742,+27 72 616 8377,https://abru.co.za/,Western Cape,15 Pasita Street
67525d30-1f18-4f03-a8ba-28a1153955eb,Absolution Brewing Co,micro,2878 Columbia St,,,Torrance,California,90503-3808,United States,-118.3378601,33.8431391,3104904860,http://www.absolutionbrewingcompany.com,California,2878 Columbia St
600f88e5-9dc9-4a41-b54e-909c292ba4bb,Absolution By the Sea,brewpub,7536 Fay Ave,,,La Jolla,California,92037-4839,United States,-117.2740167,32.84083388,6192024152,,California,7536 Fay Ave
98b6e0ab-22ba-4864-80b0-a967ca61e536,Abyss Brewing Ltd,micro,Palehouse Common,,,Uckfield,East Sussex,TN22 5RB,England,0.14604,50.945743,1825840561,https://abyssbrewing.co.uk/,East Sussex,Palehouse Common
829f7243-78f3-4282-b0e8-1a5fcb10a229,Accomplice Beer Company,brewpub,115 W 15th St,,,Cheyenne,Wyoming,82001-4564,United States,-104.819296,41.130063,3076322337,http://www.accomplicebeer.com,Wyoming,115 W 15th St
b52bfb27-345f-4add-bfc3-1b6fc67ab55b,Acidulous Brewing Company,contract,6712 S Independence St,,,Littleton,Colorado,80128-4046,United States,-105.1059543,39.5383949,3039952895,,Colorado,6712 S Independence St
7fa5779e-88df-42ab-895b-412b635498ae,Acopon Brewing Co,micro,211 W Mercer St,,,Dripping Springs,Texas,78620-5363,United States,-98.09006208,30.19269957,5128294723,http://www.acoponbrewing.com,Texas,211 W Mercer St
1a6206ad-e34b-421d-92d9-ba409cfedf82,Acorn Brewing,micro,2105 Meridian Ave E,,,Edgewood,Washington,98371,United States,-122.2934912,47.23859752,2535178899,https://www.acornbeer.com/,Washington,2105 Meridian Ave E
2fe1e670-d832-4ba5-b957-f86a09ee062d,Acoustic Ales Brewing Experiment,closed,1795 Hancock St Ste P1,,,San Diego,California,92110-2006,United States,-117.1840465,32.74219079,6192992537,http://www.acousticales.com,California,1795 Hancock St Ste P1
ea7f7091-5e37-4762-bbcc-9a51702c99c1,"Actual Brewing Company, LLC",micro,655 N James Rd,,,Columbus,Ohio,43219-1837,United States,-82.9080986,39.9868523,6146363825,http://wwww.actualbeer.com,Ohio,655 N James Rd
0d0f85e7-bc2d-44fc-bf27-4f14e5d6136a,Adam's Northwest Bistro / Twin Rivers Brewing,closed,104 N Lewis St,,,Monroe,Washington,98272-1502,United States,-121.970887,47.85588471,3607944056,http://www.adamsnwbistro.com,Washington,104 N Lewis St
9ff5f718-dee7-4e69-b79c-6250de87e840,Adelbert's Brewery LLC,micro,2314 Rutland Dr Ste 100,,,Austin,Texas,78758-5273,United States,-97.7201589,30.3826286,5126621462,http://www.adelbertsbeer.com,Texas,2314 Rutland Dr Ste 100
a180c4e0-77cc-4088-951c-62192abd99d4,Adirondack Pub and Brewery,micro,33 Canada St,,,Lake George,New York,12845-1603,United States,-73.71407763,43.41850655,5186680002,http://www.adkpub.com,New York,33 Canada St
1b7f0552-3b1a-4737-8cb4-eb8d7134d903,Adirondack Toboggan Company Microbrewery,micro,202A W Main St,,,Gouverneur,New York,13642-1334,United States,-75.47489238,44.33237311,3157716313,http://www.adktoboggan.net,New York,202A W Main St
49e805d3-70e3-4c21-81d6-d21e290ffefe,AdMerk Corp. Inc.,contract,20 F St NW,,,Washington,District of Columbia,20001-6700,United States,-77.0094205,38.89742205,6172028069,http://www.paugustin.com,District of Columbia,20 F St NW
2861f9b7-ebe4-49a5-a047-8aa0c142dbf3,Adobe Creek Brewing Company,micro,67 Galli Dr Ste E,,,Novato,California,94949-5718,United States,-122.5358157,38.07349982,4155064565,http://www.adobecreekbrewing.com,California,67 Galli Dr Ste E
a0111777-1fe6-4c8c-864e-c2518f5d5670,Adroit Theory Brewing Company,micro,404 Browning Ct Unit C,,,Purcellville,Virginia,20132-6171,United States,,,7034340553,http://www.adroit-theory.com,Virginia,404 Browning Ct Unit C
ef2e3826-f9b5-44d2-b901-331aa728a8cd,Adur Brewery,micro,Mouse Lane,,,Steyning,West Sussex,BN44 3DG,England,-0.340173,50.893624,1903867614,https://www.adurbrewery.co.uk/,West Sussex,Mouse Lane
73e05bc6-30a9-42f5-917e-08def2fa33fa,Adventure Brewing Co,micro,33 Perchwood Dr Ste 101,,,Fredericksburg,Virginia,22405-4552,United States,,,5402428876,http://www.adventurebrewing.com,Virginia,33 Perchwood Dr Ste 101
d4661358-81e2-454d-9fe2-b08ef6fc16fe,Adventure South,brewpub,3300 Dill Smith Dr,,,Fredericksburg,Virginia,22408-7319,United States,,,5403717799,http://www.adventurebrewing.com,Virginia,3300 Dill Smith Dr
82b967b9-3808-4716-9a51-58f80cd038c6,Aegir Project Brewery,brewpub,65 Beach Road,Noordhoek,,Cape Town,Western Cape,7979,South Africa,18.3582,-34.1035,+27 66 587 9566,https://aegirprojectbrewery.com/,Western Cape,65 Beach Road
e77c24b4-8b21-4d28-a9c0-568623b77cd9,Aero Craft Brewing,planning,,,,Denver,Colorado,80212-2199,United States,-104.984696,39.7391428,3039185446,http://www.aerocraft.beer,Colorado,
6f0bba92-cc4b-49df-ad02-827b08bd7272,Aero Plains Brewing,micro,117 N Handley St,,,Wichita,Kansas,67203-6114,United States,-97.35071131,37.68455054,3164482811,http://www.aeroplainsbrewing.com,Kansas,117 N Handley St
59b8c8b8-6850-4b24-81f0-a16a9cd87773,Aeronaut Brewing Company,micro,14 Tyler St,,,Somerville,Massachusetts,02143-3224,United States,-71.1062676,42.3819723,6179874236,http://www.aeronautbrewing.com,Massachusetts,14 Tyler St
2d26c5df-aa29-4c3b-9d56-5a83d5102f41,Aether Brewing,micro,340 Melton Road,,,Northgate,QLD,4013,Australia,153.0708268,-27.3932924,+61 1800 325 013,http://www.aetherbrewing.com.au/,QLD,340 Melton Road
580dba92-5b7a-4e6c-9129-ac5621c90ecd,Afro Caribbean Brewing Company,brewpub,157 Second Avenue,Kenilworth,,Cape Town,Western Cape,7925,South Africa,18.4705,-33.9372,+27 21 447 1787,https://www.acbc.co.za/,Western Cape,157 Second Avenue
333c81a4-9bcd-4699-b28a-2c49dd696596,Aftershock Brewing Co,micro,28822 Old Town Front St Ste 107,,,Temecula,California,92590-2893,United States,-117.1485306,33.49310382,9519722256,http://www.aftershockbrewingco.com,California,28822 Old Town Front St Ste 107
c185b848-a69a-4d73-8a33-7b6f0db2e3fc,Afterthought Brewing Company,micro,844 N Ridge Ave,,,Lombard,Illinois,60148-1215,United States,-88.02234574,41.90549742,6303011615,http://afterthoughtbrewing.com,Illinois,844 N Ridge Ave
1844257e-dab7-421d-9a9e-f594a3943b2f,Against the Grain Beer Garden,planning,,,,Louisville,Kentucky,40217,United States,,,,,Kentucky,
3d00e6db-0f45-43a5-add5-b9455edfdccb,Against the Grain Brewery,micro,401 E Main St,,,Louisville,Kentucky,40202-1110,United States,-85.7440377,38.2554568,5025150174,http://atgbrewery.com,Kentucky,401 E Main St
68855f86-415a-44e9-a0ab-53e6c8b10a3d,Against the Grain Production Facility,micro,1800 Northwestern Pkwy,,,Louisville,Kentucky,40203,United States,-85.7767241,38.2658758,,,Kentucky,1800 Northwestern Pkwy
5ad38209-903f-4200-946e-ae435947252e,Agar’s Brewery,micro,Unit 12,109 Landmarks Avenue,Samrand,Centurion,Gauteng,0157,South Africa,28.1256,-25.9189,+27 83 294 8322,https://agarsbrewery.co.za/,Gauteng,Unit 12
85c7bc77-387c-449f-8091-6c694b35077c,Agonic Brewing Company LLC,planning,,,,Rice Lake,Wisconsin,54868-8786,United States,-91.732284415498,45.502184424793,7153089283,http://www.agonicbrewing.com,Wisconsin,
f1ed5260-13cb-4f22-a4ac-0e1f7f676a12,"Agrarian Ales, LLC",closed,31115 W Crossroads Ln,,,Eugene,Oregon,97408-9220,United States,-123.1277712,44.18922784,5416323803,http://www.agales.com,Oregon,31115 W Crossroads Ln
685be3dc-20b8-434d-880c-d7aabac5bfc0,Ahnapee Brewery,micro,N9153 Cherry Tree Rd Apt 4,,,Algoma,Wisconsin,54201-9501,United States,-87.436453944363,44.607613658885,9202178527,http://www.ahnapeebrewery.com,Wisconsin,N9153 Cherry Tree Rd Apt 4
b9f4f532-15df-4a50-b15e-e5cd5d41977b,Aigean Ales,closed,250 Commercial St Ste 2001,,,Manchester,New Hampshire,03101-1165,United States,-71.46899187,42.9899594,6035188550,,New Hampshire,250 Commercial St Ste 2001
dfec4bba-cfbc-4562-b6be-f0563f51821a,Aiken Brewing Co,brewpub,140 Laurens St SW,,,Aiken,South Carolina,29801-3848,United States,-81.7228141,33.5603084,8035020707,http://www.aikenbrewingcompany.com,South Carolina,140 Laurens St SW
f4c592ed-4c20-4b87-bb35-64f894a6cc6b,Airline Brewing Company,micro,22 Mill Ln,,,Amherst,Maine,04428,United States,-68.3677435,44.8329462,2075842337,http://www.abcmaine.beer,Maine,22 Mill Ln
9737bf0c-b29e-49d7-9778-3951072eb147,Airways Brewing Co,closed,8611 S 212th St,,,Kent,Washington,98031-1910,United States,-122.2391026,47.4119802,2532001707,http://www.airwaysbrewing.com,Washington,8611 S 212th St
d9578437-2aa8-45ab-97f2-cf6f7074d9af,Airways Brewing Co. Bistro & Beer Garden,closed,320 W Harrison St,,,Kent,Washington,98032-4476,United States,-122.235649,47.382498,2532368632,http://airwaysbrewing.com/bistro-beer-garden/,Washington,320 W Harrison St
828ee507-7142-4c7c-9f0b-82964d4195d0,Akademia Brewing Company,brewpub,150 Crane Dr,,,Athens,Georgia,30606-0600,United States,-83.47153754,33.94270289,7064613208,http://www.AkademiaBC.com,Georgia,150 Crane Dr
f767a00f-fbd9-4d31-abe6-902149c0158a,Akasha Brewing Company,micro,909 E Market St Ste 700,,,Louisville,Kentucky,40206-1688,United States,,,5027427770,http://www.akashabrewing.com,Kentucky,909 E Market St Ste 700
645a43c4-74b2-47e5-a795-f2b0f678df52,Akasha Brewing Company,micro,10-12 Spencer Street,,,Five Dock,NSW,2046,Australia,151.1182256,-33.8697751,+61 2 9715 7156,http://www.akashabrewing.com.au/,NSW,10-12 Spencer Street
d4f4e76b-b971-4dcb-8a9b-d6c36a3e8c22,Akronym Brewing LLC,micro,58 E Market St,,,Akron,Ohio,44308,United States,-81.51645882,41.08512193,3306208274,http://www.akronymbrewing.com,Ohio,58 E Market St
06ac0316-a30f-40c6-acb7-c08fea0c30b1,Akwesasne Mohawk Casino Resort,planning,,,,Akwesasne,New York,13655-1800,United States,,,5183582222,http://mohawkcasino.com,New York,
39e91766-af3e-4074-9d49-26ca621e45dc,Al. Ringling Brewing Co,micro,623 Broadway St,,,Baraboo,Wisconsin,53913-2513,United States,-89.744831773235,43.471751392447,6084484013,http://www.alringlingbrewingco.com,Wisconsin,623 Broadway St
b7db853a-e8aa-430f-84c8-d49b72184d01,Alameda Brewing Co,micro,4736 SE 24th Ave,,,Portland,Oregon,97202-4787,United States,-122.6412495,45.48882655,5034609025,,Oregon,4736 SE 24th Ave
07ad4030-fb5b-4eb7-9b28-d7f5556b145d,Alameda Brewing Co,micro,4765 NE Fremont St,,,Portland,Oregon,97213-1724,United States,-122.6136209,45.54849565,5034609025,http://www.alamedabrewing.com,Oregon,4765 NE Fremont St
6fbd1118-ceea-4be9-a784-45dd623f16f0,Alameda Island Brewing Company,micro,1716 Park St,,,Alameda,California,94501-1416,United States,-122.2394506,37.76833631,5102178885,http://www.alamedaislandbrewingcompany.com,California,1716 Park St
edf1c0fb-cce0-44ec-8d98-dd4778e2d533,Alamo Beer Co,micro,415 Burnet St,,,San Antonio,Texas,78202-1909,United States,-98.4771638,29.42902321,2108725589,http://www.alamobeer.com,Texas,415 Burnet St
4f79f427-8214-4048-8636-63cef96b33da,Alarmist Brewing Co,micro,4055 W Peterson Ave Ste REAR,,,Chicago,Illinois,60646-6072,United States,,,7739882536,http://alarmistbrewing.com,Illinois,4055 W Peterson Ave Ste REAR
aa3c4d60-4fb2-49e2-980c-6a61672d90cb,Alaro Craft Brewery,brewpub,2004 Capitol Ave,,,Sacramento,California,95811,United States,-121.4811835,38.57323961,9164367711,http://www.alarobrewing.com,California,2004 Capitol Ave
d065903f-f9fc-4e4c-a64d-9b69905431b5,Alaskan Brewing Co.,regional,5429 Shaune Dr,,,Juneau,Alaska,99801-9540,United States,-134.4918763,58.35681231,9077805866,http://www.alaskanbeer.com,Alaska,5429 Shaune Dr
d188560a-fd0d-4a44-9e4b-11aab9db8205,Albia Brewing Co,brewpub,11 Benton Ave E,,,Albia,Iowa,52531-2032,United States,-92.8073711,41.02718903,6419324085,http://www.albiabrewingcompany.blogspot.com,Iowa,11 Benton Ave E
4c8a98d1-1012-4814-82a5-20c68b131442,Albion Malleable Brewing Company,brewpub,420 S Superior St,,,Albion,Michigan,49224,United States,-84.7532755,42.2423188,5173432202,http://www.albionmalleable.com,Michigan,420 S Superior St
943f1201-9c0d-4717-95e3-0756a906f527,Albright Grove Brewing Company,planning,,,,Townsend,Tennessee,37882,United States,,,8656049898,,Tennessee,
ec26cd9a-540f-4f23-b030-670115eed645,Alcatraz Brewing,micro,20 Ocean Vista Ln,,,Palm Coast,Florida,32137-2743,United States,-81.19287028,29.61781196,3866278909,http://www.alcatraz.beer,Florida,20 Ocean Vista Ln
b1f7a6c5-a4e0-477b-a380-17f8a0120e2d,"Alcazar Brewery, LLC.",planning,,,,Rio Grande City,Texas,78582-4450,United States,,,,,Texas,
091edbcc-f9fc-484e-9c04-c18ed505e2ac,Alchemist Cannery,regional,35 Crossroad,,,Waterbury,Vermont,05676-9003,United States,,,8022447744,http://www.alchemistbeer.com,Vermont,35 Crossroad
8135f18c-0c31-4b4d-bb22-84eccf498e9c,Aldus Brewing Company,micro,555 Centennial Ave,,,Hanover,Pennsylvania,17331-3936,United States,-76.98030009,39.79422185,7176342407,http://www.aldusbrewing.com,Pennsylvania,555 Centennial Ave
c812aa3f-208b-49e2-a1e6-96cae8943605,Ale Asylum,regional,2002 Pankratz St,,,Madison,Wisconsin,53704-4024,United States,-89.35416285,43.12046815,6086633926,http://www.aleasylum.com,Wisconsin,2002 Pankratz St
e51921d1-17c2-4f4d-93b4-d88fe56c27de,Ale House,brewpub,82 Steve Biko Street,,,Potchefstroom,North West,2531,South Africa,27.0911,-26.7118,+27 18 297 5447,https://thealehouse.co.za/,North West,82 Steve Biko Street
e13a5403-3cd7-4dbf-92f1-e48d0f26c750,Ale House Brewing Co,micro,,,,San Jose,California,95118-1605,United States,-121.8905833,37.3361905,4083907574,,California,
13f19f47-cac4-44df-b4f3-728e4dcde6c5,Ale Industries,micro,3096 E 10th St,,,Oakland,California,94601-2960,United States,-122.2281897,37.7761111,9254705280,http://www.aleindustries.com,California,3096 E 10th St
e9f93b6a-72c5-4e40-9511-705480434310,Ale Mary Brewing Co.,micro,8 Gladstone Street,Unit 26,,Fyshwick,ACT,2609,Australia,149.173169,-35.32352,+61 411 627 321,https://www.alemary.beer/,ACT,8 Gladstone Street
148e8fb4-4977-4ba8-8fa6-1133a56198d4,Ale Republic,micro,28 Arroyo Seco,,,Cedar Crest,New Mexico,87008,United States,,,5052812828,http://www.alerepublic.com,New Mexico,28 Arroyo Seco
797c9175-fb51-44d3-ad4b-d46b42367fdc,Ale Spike,closed,9300 271st St NW Ste B-5,,,Stanwood,Washington,98292,United States,,,,http://www.alespike.com,Washington,9300 271st St NW Ste B-5
ea06694a-32f8-4026-b22e-aeb880848b4d,Ale Spike Brewery,micro,1244 N Moore Rd Unit I-1,,,Camano Island,Washington,98282,United States,-122.4381311,48.25785496,3609392434,http://www.alespike.com,Washington,1244 N Moore Rd Unit I-1
d678c1a4-713e-483e-8c60-c891d5cf043e,Alefarm Brewing,micro,96 Riversdale Road,,,Hawthorn,VIC,3122,Australia,145.0346325,-37.8289324,+61 406 260 073,http://www.ramblers.beer/,VIC,96 Riversdale Road
1170049c-c20d-43c8-9475-0a42599f144c,Aleman Brewing,micro,3304 N Knox Ave,,,Chicago,Illinois,60641-4434,United States,-87.74301213,41.94087994,8123404198,http://www.alemanchicago.com,Illinois,3304 N Knox Ave
f1e3ff3e-078c-46c3-85ae-62f86d3a3a21,Alematic Artisan Ales,planning,,,,Huber Heights,Ohio,45424-3857,United States,,,9376122337,http://www.alematicbrewing.com,Ohio,
31746e2a-3704-458f-8235-437f53d5afe1,Alesatian Brewing Co.,brewpub,21 N Loudoun St,,,Winchester,Virginia,22601-4715,United States,-78.16559208,39.18446446,5406672743,http://www.alesatianbrewing.com,Virginia,21 N Loudoun St
f8097dbc-c8e6-4068-9540-5c4bd4ac0bcf,AleSmith Brewing Co,regional,9990 Alesmith Ct,,,San Diego,California,92126-4200,United States,-117.1495496,32.88858458,8585499888,http://www.alesmith.com,California,9990 Alesmith Ct
40093c50-b89d-443f-9ac7-b24a000d8f48,Alesong Brewing and Blending,micro,1000 Conger St Ste C,,,Eugene,Oregon,97402-2950,United States,-123.2384193,43.85285684,5419723303,http://www.alesongbrewing.com,Oregon,1000 Conger St Ste C
f15f6ebf-0d80-4e6b-ad38-fb0ca9f3d3ed,Alesong Brewing and Tasting Room,micro,1000 Conger Unit C,,,Eugene,Oregon,97402,United States,-123.2384193,43.85285684,5419723303,http://www.alesongbrewing.com,Oregon,1000 Conger Unit C
e4148f94-4ce9-4fd2-9b05-faabdcca2b09,Alewerks Brewing Company,micro,197 Ewell Rd,,,Williamsburg,Virginia,23188-2185,United States,,,7572203670,http://www.alewerks.com,Virginia,197 Ewell Rd
ed3ea3ae-04d3-4356-ab96-a74514992a50,Alewife Brewing Company,brewpub,514 51st Ave,,,Long Island City,New York,11101-5879,United States,-73.95625257,40.74232214,7189377494,http://www.alewife.beer,New York,514 51st Ave
5860a6e0-1bf6-4334-8797-e5668fc22db0,Alexandria Brewing Company,micro,7926 Alexandria Pike Ste 1,,,Alexandria,Kentucky,41001-1454,United States,,,8596946999,http://www.alexandriabrewingcompany.com,Kentucky,7926 Alexandria Pike Ste 1
9da0a260-5b85-4490-824a-a397446c17dc,Algarve Rock Brewery,micro,Unidade 2B,Parque Vale da Venda,,Faro,Faro,8005-412,Portugal,-7.9729562079031,37.065600871444,+ 351 289 815 218,https://algarverock.com/,Faro,Unidade 2B
083b7953-133d-453f-ada0-2b3541d1931c,Alibi Ale Works,micro,204 E Enterprise St,,,Incline Village,Nevada,89451-9456,United States,-119.9537117,39.24819328,7752987001,http://www.alibialeworks.com,Nevada,204 E Enterprise St
45a2116d-d9d2-4114-b15f-736d9557f00c,Alice Springs Brewing Co.,micro,39 Palm Circuit,,,Ross,NT,873,Australia,133.867253,-23.732893,+61 8 7904 4007,https://www.alicespringsbrewingco.com.au/?utm_source=google_business_profile&utm_medium=gbp_view_website&utm_campaign=gbp,NT,39 Palm Circuit
e1f999c9-3012-41ab-869b-767125e19b7f,Alien Brewpub,brewpub,6601 Uptown Blvd NE Ste B,,,Albuquerque,New Mexico,87110-4207,United States,,,5058841116,http://www.abqbrewpub.com,New Mexico,6601 Uptown Blvd NE Ste B
68b447a3-c65c-459f-8d02-334757bc6f71,Align Brewing Co,micro,8680 Miralani Dr,,,San Diego,California,92126-6300,United States,-117.137429,32.896584,,http://www.facebook.com/alignbrewing,California,8680 Miralani Dr
e36f9132-3c0b-41d4-b074-b54286d6a9a8,All Inn Brewing Co.,micro,189 Elliott Road,,,Banyo,QLD,4014,Australia,153.0799698,-27.3668382,+61 478 519 414,http://www.allinnbrewingco.com/,QLD,189 Elliott Road
108b8592-3098-42a3-b466-5c60e2e626af,All Rise Brewing Co,brewpub,235 N Ashland Ave,,,Chicago,Illinois,60607-1401,United States,-87.6667328,41.8864021,3122266300,http://www.allrisebrewing.com,Illinois,235 N Ashland Ave
61853d49-62af-44bc-b0f7-bbc0faa89d30,All Saints Brewing Co,micro,1602 State Route 119,,,Greensburg,Pennsylvania,15601-7317,United States,,,7242891202,http://www.allsaintscraftbrewing.com,Pennsylvania,1602 State Route 119
82ea8f08-2026-43f8-b1a7-cc57ebe8c0bb,All-American Ale Works,micro,5120 E La Palma Ave Ste 103,,,Anaheim,California,92807-2082,United States,-117.8056915,33.85925032,9517412771,http://www.all-americanaleworks.com,California,5120 E La Palma Ave Ste 103
8a7a2bc0-0f42-4889-94ef-7f8f647268fa,Allagash Brewing Co,regional,50 Industrial Way,,,Portland,Maine,04103-1270,United States,-70.3179518,43.7030951,2078785385,http://www.allagash.com,Maine,50 Industrial Way
0924f3af-e548-446b-baf8-687ea51b02ae,Allegheny City Brewing,micro,507 Foreland St,,,Pittsburgh,Pennsylvania,15212-4910,United States,-80.00061073,40.45424933,4129043732,http://www.alleghenycitybrewing.com,Pennsylvania,507 Foreland St
9b4f31d5-61b4-46ed-b501-6acc4d428666,Allegory Brewing,micro,777 NE 4th St,,,McMinnville,Oregon,97128-4502,United States,-123.1917806,45.21081917,9713731253,http://www.allegorybrewing.com,Oregon,777 NE 4th St
3f583ab8-71bf-4009-9257-193ef53a1fe1,Allentown Brew Works,brewpub,812 Hamilton St,,,Allentown,Pennsylvania,18101-2437,United States,-75.4575021,40.6060468,6104337777,http://www.thebrewworks.com,Pennsylvania,812 Hamilton St
9c3b028c-2949-4216-ba66-fbb098734cde,Alliance Brewing Company,micro,1130 Sevier Ave,,,Knoxville,Tennessee,37920,United States,-83.9035469,35.9593516,8652475355,http://www.alliancebrewing.com,Tennessee,1130 Sevier Ave
10795316-cc0d-42d7-80c7-e237aae40a06,Alligator Brewing / Tall Paul's Brewhouse,micro,10 SE 2nd Ave,,,Gainesville,Florida,32601-6232,United States,-82.3222523,29.6502615,3525050990,,Florida,10 SE 2nd Ave
1b259770-4334-44ad-be18-8097be571df6,Alloy Brewing Company,micro,2700 Coon Rapids Blvd NW,,,Coon Rapids,Minnesota,55433-3955,United States,-93.33543497,45.16953614,7634230939,http://www.alloybrewingcompany.com,Minnesota,2700 Coon Rapids Blvd NW
6889b781-b8f6-4a5a-a1ef-ab3e4c72aed9,Alltech's Lexington Brewing,regional,475 Angliana Ave,,,Lexington,Kentucky,40508-3134,United States,-84.51599645,38.04950651,8592552337,http://www.Kentuckyale.com,Kentucky,475 Angliana Ave
6e103afb-f4ad-4fea-bf67-b31d390c269d,Alluvial Brewing Company,micro,3715 W 190th St,,,Ames,Iowa,50014-9316,United States,-93.6370387,41.5831617,515337118,http://www.alluvialbrewing.com,Iowa,3715 W 190th St
4d43c467-2e30-4b93-a25c-d1e46998dc07,Alma Brewing Co,brewpub,208 E Superior St,,,Alma,Michigan,48801-1819,United States,-84.6588719,43.37888808,9894620208,http://www.almabrewing.com,Michigan,208 E Superior St
085c97d4-5a01-4e28-a1c6-683bf773b062,Alma Mader Brewing,micro,2635 Southwest Blvd,,,Kansas City,Missouri,64108,United States,-94.599389,39.082495,8169452589,http://almamaderbrewing.com,Missouri,2635 Southwest Blvd
9a6f84d7-194b-426d-999f-c1be9beb835d,Almanac Beer Company,micro,651B W Tower Ave,,,Alameda,California,94501-5047,United States,-122.3062832,37.78344977,4159326531,http://almanacbeer.com,California,651B W Tower Ave
fc0ae4ac-07b5-4df2-a1d2-0785af183a35,Almost Famous Brewing Company,micro,17 Kripes Rd,,,East Granby,Connecticut,06026,United States,-72.4224674,41.9581654,8604139401,https://www.almostfamousbrewing.com/,Connecticut,17 Kripes Rd
cc1c18dc-77d7-4ca5-b3b7-8180f77feecd,Aloha Beer Co,brewpub,700 Queen St,,,Honolulu,Hawaii,96813-5110,United States,-157.857248,21.301249,8085455959,http://www.alohabeer.com,Hawaii,700 Queen St
b3bea277-345d-4154-9a79-1c9364ee0172,Aloha Sea Sports Centre,bar,1212 East Coast Parkway,E2 Area E,,Singapore,Singapore,449886,Singapore,1.306439441491,103.934847,+65 6241 9212,https://www.alohaseasports.com/bar,Singapore,1212 East Coast Parkway
30ef2457-11c4-48ef-ae58-37109ceda4c7,Alosta Brewing Co,micro,692 Arrow Grand Cir,,,Covina,California,91722-2122,United States,-117.8781466,34.10365026,9094558707,http://www.alostabrewing.com,California,692 Arrow Grand Cir
abe71cdf-8c92-4be2-adac-902d1a14e7bb,Alpenglow Beer Co,contract,,,,Lafayette,California,94549-4621,United States,-122.1180201,37.8857582,,http://www.buckwildbrew.com,California,
dc9fb80b-fb92-47c2-8b13-9a6f6990f99e,Alpha Acid Brewing Co,micro,121 Industrial Way Ste 12,,,Belmont,California,94002-8208,United States,-122.2655717,37.52125155,6503944728,,California,121 Industrial Way Ste 12
0edb8050-2911-4a04-a99a-7927e05cd018,Alpha Brewing Co.,micro,4310 Fyler Ave,,,Saint Louis,Missouri,63116,United States,-90.26236838,38.59861817,3146212337,http://www.alphabrewingcompany.com,Missouri,4310 Fyler Ave
810e0e7c-293a-4e3e-a557-13691d30d399,Alphabet City Brewing Co,contract,96 Avenue C Frnt 4,,,New York,New York,10009-7055,United States,,,9143566809,http://www.acbnyc.com,New York,96 Avenue C Frnt 4
1d7c2273-8031-40d2-bb50-7f518722e291,Alpine Beer Company,brewpub,6550 Mira Mesa Blvd,,,San Diego,California,92121-4100,United States,-117.113975,32.9167796,6194452337,http://www.alpinebrewing.com,California,6550 Mira Mesa Blvd
d8dd6a64-c201-471f-a0a1-0fc8d04b5b49,Alpine Brewing Co,closed,821 14th Ave,,,Oroville,Washington,98844,United States,-119.4305306,48.9365877,5094769662,http://www.alpine-brewing.com,Washington,821 14th Ave
9d64f11c-4f42-41c6-8ba7-768f7bf9ec13,Alpine Dog Brewing Co,micro,1505 N Ogden St,,,Denver,Colorado,80218-1405,United States,,,3038321245,http://www.alpinedogbrewery.com,Colorado,1505 N Ogden St
8e69dcd6-de4f-41b5-a9be-cc35844fb273,ALT Brew / Greenview Brewing LLC,brewpub,1808 Wright St,,,Madison,Wisconsin,53704-2522,United States,-89.33026,43.12576305,6083523373,http://www.altbrew.com,Wisconsin,1808 Wright St
728f9750-1c56-48be-9f96-b26d04215958,Alta Brewing Company,micro,1983 Julian Avenue,,,San Diego,California,92113-1125,United States,-117.1414712,32.7018758,6197957300,http://www.altabrewing.com,California,1983 Julian Avenue
ce487823-fb0a-4ad9-b3de-2f2ec4ce0631,Altamont Beer Works,micro,2402 Research Dr,,,Livermore,California,94550-3850,United States,-121.7210974,37.67839114,9254432337,http://www.altamontbeerworks.com,California,2402 Research Dr
c7009224-b9ce-44d0-b426-cd0a1e95d6f9,Alter Brewing + Kitchen,micro,12 S 1st St,,,Saint Charles,Illinois,60174-4591,United States,-88.313937317989,41.913143276343,3319015949,http://www.alterbrewing.com,Illinois,12 S 1st St
0026ad13-246b-4091-b344-641934ef7cc3,Alter Brewing Company,micro,2300 Wisconsin Ave Ste 213,,,Downers Grove,Illinois,60515-2234,United States,,,6305419558,http://www.alterbrewing.com,Illinois,2300 Wisconsin Ave Ste 213
6dcf0b1b-3933-4207-bf88-0a37ee98994a,Alternation Brewing Company,micro,1539 S Broadway,,,Denver,Colorado,80210-2607,United States,-104.9876117,39.68866374,3038025340,http://www.alternationbrewing.com,Colorado,1539 S Broadway
b71c080f-8514-4100-bbb3-40d2582b8122,Altitude Chophouse and Brewery,brewpub,320 S 2nd St,,,Laramie,Wyoming,82070-3612,United States,-105.5953366,41.31038565,3077214031,http://www.altitudechophouse.com,Wyoming,320 S 2nd St
be64e523-9c15-4348-87e5-c6747b87abcb,Altmeyer and Lewis Brewing Company,micro,15898 N Hwy 123,,,San Marcos,Texas,78666-2418,United States,,,5126679537,http://www.altmeyerlewisbrewing.com,Texas,15898 N Hwy 123
c1e6f260-1f52-4e38-bc14-ae58fdb7bb14,Altruist Brewing Company,brewpub,559 Main St Unit 105,,,Sturbridge,Massachusetts,01518-1208,United States,,,7742418022,http://www.altruistbrewing.com,Massachusetts,559 Main St Unit 105
68410dce-b145-4c0a-993f-08fc280cc9c8,Altstadt Brewery,micro,6120 E US Highway 290,,,Fredericksburg,Texas,78624-2176,United States,-98.8467263,30.2468574,8303042337,http://www.altstadtbeer.com,Texas,6120 E US Highway 290
7d0a71c4-cec0-431b-be2f-d125a9b9a44b,Alvarado Street Brewery,micro,1315 Dayton St Ste E,,,Salinas,California,93901-4400,United States,-121.6305329,36.64880356,,,California,1315 Dayton St Ste E
08bf17d8-5f8f-40bc-88cb-5661f0791b35,Alvarado Street Brewery & Grill,brewpub,426 Alvarado St,,,Monterey,California,93940-2711,United States,-121.8946096,36.59857755,8316552337,,California,426 Alvarado St
15ccd19e-e5bc-4216-939f-3d3348fb6d5c,Alvarium Beer Company,micro,365 John Downey Dr Ste B,,,New Britain,Connecticut,06051-2922,United States,,,8603572039,http://www.alvariumbeer.com,Connecticut,365 John Downey Dr Ste B
a649a8d5-f59e-4007-bf75-e1609ef76467,Amador Brewing Company,micro,9659 Main St,,,Plymouth,California,95669-9570,United States,-120.849271,38.4808723,2095071900,http://www.amadorbrewing.com,California,9659 Main St
1a6103ad-023a-4710-988f-17e47a6732c2,Amalgam Brewing,proprietor,6381 Beach St Unit A,,,Denver,Colorado,80221-2036,United States,,,,http://www.amalgambrewing.com,Colorado,6381 Beach St Unit A
97ea0a56-c25b-45ab-afaa-ff0b37d68de5,Amani Brewing,brewpub,654 Ropp Dr,,,Martinsburg,West Virginia,25403-1533,United States,-77.949602,39.5332966,3042793861,https://amanibrewing.com,West Virginia,654 Ropp Dr
5306cc0f-35c0-4168-b49b-ea965437dc8e,Ambacht Brewing,micro,1060 NE 25th Ave Ste B,,,Hillsboro,Oregon,97124-4903,United States,-122.9564737,45.53275124,5038281400,http://www.ambacht.us,Oregon,1060 NE 25th Ave Ste B
5fffcb8c-fbca-4633-8ef4-7bfd7dd6d473,Amber Lantern Brewing Company,brewpub,44 N Main St,,,Warsaw,New York,14569-1326,United States,-78.132363,42.7408423,5857863559,http://www.amberlanternbrewingcompany.com,New York,44 N Main St
a580bbc1-343c-4213-968d-6f332755f739,Ambitious Ales,planning,,,,Long Beach,California,90807-2907,United States,-118.1580493,33.78538945,7142962550,http://www.ambitiousales.com,California,
f02ee574-d02d-486f-8d2e-851ad54b25ab,Amelia Island Brewing Company,brewpub,318 Centre St,,,Fernandina Beach,Florida,32034-4241,United States,-81.46236272,30.67106045,9043106088,http://www.theameliatavern.com,Florida,318 Centre St
5e4e7f13-1e56-4715-b575-37522b595062,American Badass Beer,contract,1401 Abbott St Corktown,,,Detroit,Michigan,48216-1946,United States,,,,http://www.americanbadassbeer.com,Michigan,1401 Abbott St Corktown
2b3bdfe8-47fd-4105-939e-57c9864e83b4,American Brewers Inc,micro,3408 Miller Rd,,,Kalamazoo,Michigan,49001-4111,United States,-85.5378194,42.26671998,2692171920,http://www.americanbrewers.us,Michigan,3408 Miller Rd
29c900c4-16b4-45ef-b688-061ed0fe8bd4,American Brewing Company,closed,180 W Dayton St Ste 102,,,Edmonds,Washington,98020-4127,United States,,,4257741717,http://www.americanbrewing.com,Washington,180 W Dayton St Ste 102
538f360a-f2b7-48fc-aa66-3ed35af0f62e,American Harvest Brewpub At Schoolcraft College,brewpub,18600 Haggerty Rd,,,Livonia,Michigan,48152-3932,United States,-83.42868497,42.419317,7344627659,http://www.schoolcraft.edu,Michigan,18600 Haggerty Rd
4c92654b-a82a-4a9a-8c3f-fc03886a0be7,American Honor Beer Co,contract,700 N Pennsylvania Ave,,,Wilkes Barre,Pennsylvania,18705-2451,United States,-75.859363,41.254896,,http://www.BoondoggleBeer.com,Pennsylvania,700 N Pennsylvania Ave
6ec8cb60-72f6-4c30-af4b-3e59e736b3fc,American Icon Brewery,brewpub,1133 19th Place,,,Vero Beach,Florida,32960,United States,-80.3955067,27.63674361,7729344266,http://www.americaniconbrewery.com,Florida,1133 19th Place
f6350f89-c5df-4969-81b2-358b6e8e6ed0,American Solera,micro,1702 E 6th St,,,Tulsa,Oklahoma,74104,United States,-95.9667403,36.1518928,9189494318,http://www.americansolera.com,Oklahoma,1702 E 6th St
045441f8-1882-4960-9e4d-0a32d24625e6,Americana Brewery,planning,,,,Fort Lauderdale,Florida,33328-1606,United States,,,,,Florida,
32dd19c9-33b8-4ed5-b5f0-1fb5f5d8ad02,Amerisports Brew Pub,brewpub,3200 Ameristar Dr,,,Kansas City,Missouri,64161,United States,-94.484526,39.150682,8164147435,http://www.ameristar.com,Missouri,3200 Ameristar Dr
9bd199ef-1796-410e-abaa-1a4c9da3a1ca,Amery Ale Works,micro,588 115th St,,,Amery,Wisconsin,54001-7801,United States,-92.396797834543,45.293806062122,7152685226,http://www.ameryaleworks.com,Wisconsin,588 115th St
fb1c5883-f652-4375-b887-a424584d0d9d,Amherst Brewing Co / Hangar Pub and Grill,brewpub,10 University Dr,,,Amherst,Massachusetts,01002-2243,United States,-72.5318418,42.3728635,4132534400,http://www.amherstbrewing.com,Massachusetts,10 University Dr
f4e14ed9-3db6-4829-a08f-3f964717e489,Ammo Brewing,micro,235 N Market St,,,Petersburg,Virginia,23803-3207,United States,-77.407177,37.230765,8047221667,http://www.ammobrewing.com,Virginia,235 N Market St
f330bf2b-e342-4265-b41f-59d8ebf8bba7,Amorphic Beer,micro,3700 N Fratney St,,,Milwaukee,Wisconsin,53212-2360,United States,-87.900978500235,43.08422407407,4144856705,http://www.amorphicbeer.com,Wisconsin,3700 N Fratney St
be80d6fe-27bc-4b12-a046-e7fc8fd947b6,Amorys Tomb Brewing Co,micro,76 Main St,,,Maynard,Massachusetts,01754-2516,United States,-71.45315644,42.43203845,9782430875,http://amorystomb.com,Massachusetts,76 Main St
fd0d376e-1c1d-48ce-ba6f-897298c20b85,Amplified Ale Works,brewpub,4150 Mission Blvd Ste 208,,,San Diego,California,92109-5054,United States,-117.2511178,32.7719729,6195871400,http://www.amplifiedales.com,California,4150 Mission Blvd Ste 208
c3f5bb6a-c7f4-45a9-829c-3978625f111e,Amplified Ale Works Miramar Studio,brewpub,9030 Kenamar Dr Ste 309,,,San Diego,California,92121-2432,United States,-117.1570695,32.88687598,6503804220,https://amplifiedales.com/,California,9030 Kenamar Dr Ste 309
f99c834f-df7e-41e9-8236-ce0d25e43189,Anacapa Brewing Co,brewpub,472 E Main St,,,Ventura,California,93001-2627,United States,-119.2935874,34.28073347,8056432337,http://www.anacapabrewing.com,California,472 E Main St
3447e49a-c978-471a-8c46-62244ca757b8,Anacortes Brewery/Rockfish Grill,brewpub,320 Commercial Ave,,,Anacortes,Washington,98221-1517,United States,-122.6126089,48.51933431,3605881720,http://www.anacortesrockfish.com,Washington,320 Commercial Ave
e6663203-a997-403b-b130-63dd975b00c6,Anaheim Brewery,micro,336 S Anaheim Blvd,,,Anaheim,California,92805-3830,United States,-117.9125249,33.8328226,7147801888,http://www.anaheimbrew.com,California,336 S Anaheim Blvd
bdc1beb9-2832-4c44-aa63-289726c3a13f,Anawan Brewing Company,planning,,,,Dighton,Massachusetts,02764,United States,,,7742296300,http://www.anawanbrewingco.com,Massachusetts,
126392f8-8260-4619-a561-ec20153c6779,Ancestry Brewery,brewpub,20585 SW 115th Ave,,,Tualatin,Oregon,97062-6857,United States,-122.7967838,45.3711546,5037060448,http://www.ancestrybrewing.com,Oregon,20585 SW 115th Ave
25809e1c-0c76-498b-8a57-d6b85ff24c3c,Anchor Brewing Co,large,1705 Mariposa St,,,San Francisco,California,94107-2334,United States,-122.4011065,37.7630772,4158638350,http://www.anchorbrewing.com,California,1705 Mariposa St
ce8f55f6-ba10-4d74-94c3-e26cc131f473,Anchorage Brewing Co,micro,148 W 91st Ave,,,Anchorage,Alaska,99515-1901,United States,-149.8893581,61.1385311,9073605104,http://www.anchoragebrewingcompany.com,Alaska,148 W 91st Ave
6c8aafd9-6e4a-4f1d-9dc0-a5e4cb710dce,Ancient City Brewing Co.,micro,3420 Agricultural Center Dr Ste 8,,,Saint Augustine,Florida,32092-0690,United States,,,9044299654,http://www.ancientcitybrewing.com,Florida,3420 Agricultural Center Dr Ste 8
032a363c-447b-495a-bfed-814201b877c0,Andean Brewing,micro,300 Corporate Dr Ste 2,,,Blauvelt,New York,10913-1162,United States,,,6464505852,,New York,300 Corporate Dr Ste 2
1d690623-2a47-4bb2-aecb-08f51a8ef390,Anders Browar,brewpub,Broniewskiego 33,,,Syców,dolnośląskie,56-500,Poland,17.7046519,51.3044034,,,dolnośląskie,Broniewskiego 33
55bbdf14-e891-4572-9ed2-9c6bf25edda9,Anderson Valley Brewing Co,regional,17700 CA-253,,,Boonville,California,95415,United States,-123.3560542,39.00141731,7078952337,http://www.avbc.com,California,17700 CA-253
adb4eef2-cd2f-4664-9912-c58890711b30,Andrews Brewing Co,micro,353 High St,,,Lincolnville,Maine,04849-5846,United States,,,2077633305,,Maine,353 High St
bd12815b-aceb-485f-9070-e37b03bbcbb4,Andrews Brewing Co At Calaboose Cellars,micro,575 Aquone Rd,,,Andrews,North Carolina,28901-7004,United States,-83.81487799,35.19958164,8283212006,http://www.calaboosecellars.com,North Carolina,575 Aquone Rd
be95afe2-de19-4b3b-8c83-a24ac9cd4aa7,Angel City Brewery,micro,216 S Alameda St,,,Los Angeles,California,90012-4201,United States,-118.237715,34.04627065,2136221261,http://www.angelcitybrewery.com,California,216 S Alameda St
a7e8257d-956d-46ca-81f4-33d1b6a13fc8,"Angelina Brewing Company, LLC.",planning,,,,Lufkin,Texas,75904-7550,United States,,,3168419327,,Texas,
d4e376b6-3aad-46ae-ae8d-471791ae03f8,"Angry Chair Brewing, LLC.",micro,6401 N Florida Ave,,,Tampa,Florida,33604-6007,United States,-82.459381,28.005127,8138921651,http://www.angrychairbrewing.com,Florida,6401 N Florida Ave
67616802-40bf-435e-8824-598bbf20e054,Angry Erik Brewing,micro,10 Millpond Dr Unit 8,,,Lafayette,New Jersey,07848-3825,United States,,,8624329003,http://www.angryerik.com,New Jersey,10 Millpond Dr Unit 8
8dc5e687-be97-44c3-ae27-9b0818d48471,Angry Fish Brewing Company,micro,106 Fabrister Ln Ste C,,,Lexington,South Carolina,29072,United States,,,8035707470,http://angryfishbewingco.com,South Carolina,106 Fabrister Ln Ste C
40ecc96b-6dea-4e6b-a8f0-55293970654b,Angry Hank's Microbrewery,micro,20 N 30th St,,,Billings,Montana,59101-2140,United States,-108.5076025,45.78022173,4062523370,,Montana,20 N 30th St
5d0bfbaa-e738-4d5b-a68e-5cfea2116197,Angry Horse Brewing,micro,603 W Whittier Blvd,,,Montebello,California,90640-5235,United States,-118.1003743,34.0084152,3235300015,http://angryhorsebrewing.com,California,603 W Whittier Blvd
4f22a5e8-e8e0-471b-8070-888584fc446a,Angry Inch Brewing,micro,20841 Holyoke Ave,,,Lakeville,Minnesota,55044-,United States,-93.2432718,44.6476022,,http://www.angryinchbrewing.com,Minnesota,20841 Holyoke Ave
c9b30f6c-608f-4762-b041-c4c91e8aeba2,Angry James Brewing Co,micro,421 Adams Ave,,,Silverthorne,Colorado,80498,United States,-106.0764637,39.63306895,9704558800,http://www.angryjamesbrewing.com,Colorado,421 Adams Ave
64b090eb-64c7-4dc2-9799-d0420b517169,Angry Minnow Brewery,brewpub,10440 Florida Ave,,,Hayward,Wisconsin,54843-7112,United States,-91.4887672,46.0104853,7159343055,http://www.angryminnow.com,Wisconsin,10440 Florida Ave
3929eda4-926c-46cd-ab20-cb5c9e6f7caf,Angry Scotsman Brewing,contract,704 W Reno Ave,,,Oklahoma City,Oklahoma,73102-2434,United States,-97.6002769,35.4644206,4056737713,http://www.angryscotbrew.com,Oklahoma,704 W Reno Ave
fa4da286-e9a3-4d00-ab49-8e5f027f76d5,Angry Troll Brewing / 222 Public House,brewpub,222 E Main St Ste U2,,,Elkin,North Carolina,28621-3493,United States,,,3362582251,http://www.angrytrollbrewing.com,North Carolina,222 E Main St Ste U2
d1a61260-d377-4e7d-8ce9-8851e30934ae,Anheuser-Busch InBev,large,1 Busch Pl,,,Saint Louis,Missouri,63118-1849,United States,-90.2118998,38.5954536,3145772000,http://www.anheuser-busch.com,Missouri,1 Busch Pl
12bc86df-c66b-4fb9-9f84-5bb405ccb8b1,Anheuser-Busch Inc - Fort Collins,large,2351 Busch Dr,,,Fort Collins,Colorado,80524-9400,United States,-105.0019686,40.61817811,9704904500,,Colorado,2351 Busch Dr
7d78f227-f2c5-4830-abb5-28a209de235d,Anheuser-Busch Inc - Los Angeles,large,15800 Roscoe Blvd,,,Van Nuys,California,91406-1350,United States,-118.4721072,34.2213918,8189895300,,California,15800 Roscoe Blvd
baec5c2d-a983-49e0-beb9-ca55879d4139,Anheuser-Busch Inc â Baldwinsville,large,2885 Belgium Rd,,,Baldwinsville,New York,13027-2706,United States,-76.31159343,43.16510925,3156354000,,New York,2885 Belgium Rd
6599a1de-d497-4e4f-bf3d-16d5065fefec,Anheuser-Busch Inc â Cartersville,large,100 Busch Dr NE,,,Cartersville,Georgia,30121-7217,United States,,,7703862000,,Georgia,100 Busch Dr NE
2360f91c-60cb-402c-ad58-3eb638859f4c,Anheuser-Busch Inc â Columbus,large,700 Schrock Rd,,,Columbus,Ohio,43229-1123,United States,-82.99307,40.102197,6148886644,,Ohio,700 Schrock Rd
2f7efc38-d4fd-47fc-bc1e-4b506fb6e66c,Anheuser-Busch Inc â Fairfield,large,3101 Busch Dr,,,Fairfield,California,94534-9726,United States,-122.0902992,38.2365838,7074292000,,California,3101 Busch Dr
34dd23fd-b208-4a7b-b4d2-3488b20e618f,Anheuser-Busch Inc â Houston,large,775 Gellhorn Dr,,,Houston,Texas,77029-1496,United States,-95.27130674,29.771858,7136752311,,Texas,775 Gellhorn Dr
a7e9194f-28a7-4fb8-85fb-38ee669b66e6,Anheuser-Busch Inc â Jacksonville,large,111 Busch Dr,,,Jacksonville,Florida,32218-5546,United States,-81.6481156,30.4319552,9047510700,,Florida,111 Busch Dr
c1e8a479-5371-44bb-a952-b76b60997a9e,Anheuser-Busch Inc â Merrimack,large,221 Daniel Webster Hwy,,,Merrimack,New Hampshire,03054-4807,United States,-71.48598162,42.8253635,6038896631,,New Hampshire,221 Daniel Webster Hwy
5486bf95-fcc8-4829-854f-2cc5779e7212,Anheuser-Busch Inc â Newark,large,200 US Highway 1,,,Newark,New Jersey,07114-2298,United States,,,9736457700,http://www.anheuser-busch.com,New Jersey,200 US Highway 1
277a6d32-7f94-4a94-ad41-ad7f4ce8ce1c,Anheuser-Busch Inc ̢���� Williamsburg,large,7801 Pocahontas Trl,,,Williamsburg,Virginia,23185-6302,United States,-76.6798988,37.2652889,7572533600,http://www.anheuser-busch.com,Virginia,7801 Pocahontas Trl
c498dd04-30b2-4f8f-b06b-c47a34dd61c7,Animas Brewing Co,brewpub,1560 E 2nd Ave,,,Durango,Colorado,81301-5186,United States,-107.8769912,37.27997215,9704038850,http://www.animasbrewing.com,Colorado,1560 E 2nd Ave
236cb5e3-d827-453a-a3a4-5a4d59d87adf,Ankrolab Brewing Company,planning,,,,Naples,Florida,34112-6363,United States,,,2394511223,http://ankrolab.com,Florida,
b26623c7-5291-4492-b876-66c2d970c275,Another Round Brewing Co,closed,745 N Grand Ave,,,Pullman,Washington,99163-3151,United States,-117.175392,46.736755,9164757580,https://anotherroundbrewery.com,Washington,745 N Grand Ave
f95b4c37-7d9c-4bcb-8958-31c352cd1cab,Anthem Brewing Co,micro,908 SW 4th St,,,Oklahoma City,Oklahoma,73109-1012,United States,-97.5279236,35.46099673,4056040446,http://www.anthembrewing.com,Oklahoma,908 SW 4th St
9379b79b-63c2-4ce3-9605-f499f7915f7e,"Antietam Brewery,LLC",micro,140 Western Maryland Pkwy Unit G,,,Hagerstown,Maryland,21740-5197,United States,,,3017915915,http://www.antietambrewery.com,Maryland,140 Western Maryland Pkwy Unit G
1c215e2f-7a58-46ce-88cc-241bd3d39482,Antiques on High,micro,714 S High St,,,Columbus,Ohio,43206,United States,-82.99774,39.9476,614-725-2070,https://www.antiquesonhigh.com/,Ohio,714 S High St
516c104c-11fb-43d7-89cb-cf0a36236baf,Anvil Ale House,brewpub,728 Kruis Street,,,Dullstroom,Mpumalanga,1110,South Africa,30.1017,-25.4223,+27 73 169 7155,https://www.anvilale.co.za/,Mpumalanga,728 Kruis Street
26a850f9-f796-427c-810d-84b4ae08dfbb,Anvil Brewing,brewpub,115 S. Compress St,,,Pittsburg,Texas,75686-1353,United States,,,9039267741,http://www.anvilbrewingtx.com,Texas,115 S. Compress St
625f2c38-c681-4d85-b4b6-2e5ee25d79a9,APE BREWING,brewpub,2-1-15 Kawaramachi Kawaramachi Daito Building 1F,,,Osaka,Osaka,541-0048 ,Japan,135.5076625,34.68696137,81676619443,https://www.instagram.com/ape_brewing,Osaka,2-1-15 Kawaramachi Kawaramachi Daito Building 1F
6d598adb-bca7-42d8-99b6-4f2074bc8aee,APEShip Brewing,micro,520 N Dewey St,,,North Platte,Nebraska,69101-3913,United States,-100.75354430575,41.181566260787,3085689433,https://apeshipbrewing.com,Nebraska,520 N Dewey St
e61dc891-91d8-4a0f-a55e-b5e34acc97fd,Apex Aleworks Brew And BBQ Supplies,micro,4360 S Noland Rd,,,Independence,Missouri,64055-4741,United States,-94.416872,39.041039,8163135039,http://www.apexaleworks.com,Missouri,4360 S Noland Rd
e15991e7-755b-465a-9d39-0f850305e900,Apex Brewery,micro,"405 State Route 17M Monroe, NY 10950",,,Monroe,New York,19050,United States,-74.1730176,41.3165152,845-202-3498,https://apexbrews.com,New York,"405 State Route 17M Monroe, NY 10950"
98f2d2a5-5f1d-494c-b920-c50d6761b62e,Apocalypse Ale Works,micro,1257 Burnbridge Rd,,,Forest,Virginia,24551-3803,United States,-79.28917899,37.36302124,4342588761,http://www.apocalypsebrewworks.com,Virginia,1257 Burnbridge Rd
b622e216-d777-41c0-a795-bb901d31a555,Apocalypse Brew Works,micro,1612 Mellwood Ave,,,Louisville,Kentucky,40206-1752,United States,-85.72031443,38.2566442,5025894843,http://www.apocalypsebrewworks.com,Kentucky,1612 Mellwood Ave
855b2e6e-9fa0-40da-bcba-343bef14d556,Appalachian Brewing Co - Collegeville,brewpub,50 W Third Ave Collegeville Station 2nd Floor,,,Collegeville,Pennsylvania,19426-3655,United States,,,4849736064,http://www.abcbrew.com,Pennsylvania,50 W Third Ave Collegeville Station 2nd Floor
cb55778e-fc31-4634-b56f-570961484c8d,Appalachian Brewing Co - Gettysburg Gateway,brewpub,70 Presidential Cir,,,Gettysburg,Pennsylvania,17325-8399,United States,,,7173982419,http://www.abcbrew.com,Pennsylvania,70 Presidential Cir
48fd38a6-736f-4e76-b69a-8642d82c67df,Appalachian Brewing Co - Harrisburg,brewpub,50 N Cameron St,,,Harrisburg,Pennsylvania,17101-2407,United States,-76.8816961,40.291059,7172211080,http://www.abcbrew.com,Pennsylvania,50 N Cameron St
dddd1391-58ad-4a74-bd0d-93997ccaf17d,Appalachian Brewing Co - Lititz,brewpub,55 N Water St,,,Lititz,Pennsylvania,17543-1612,United States,-76.30100986,40.15827375,7172211080,http://www.abcbrew.com,Pennsylvania,55 N Water St
19693f1b-962f-4b88-8d53-7faf3e176208,Appalachian Brewing Co - Mechanicsburg,brewpub,6462 Carlisle Pike,,,Mechanicsburg,Pennsylvania,17050-2384,United States,,,7177954660,http://www.abcbrew.com,Pennsylvania,6462 Carlisle Pike
5b127f6a-3364-4588-b5ad-f7953fc6ee54,Appalachian Mountain Brewery - Boone,micro,163 Boone Creek Dr,,,Boone,North Carolina,28607-7911,United States,-81.668461,36.2033414,8282631111,http://www.appalachianmountainbrewery.com,North Carolina,163 Boone Creek Dr
d8528f09-f3d8-48f9-9719-db00b4e10b71,Appalachian Mountain Brewery - Portsmouth,micro,1 Redhook Way,,,Portsmouth,New Hampshire,03801-6853,United States,-70.8044602,43.087884,8282631111,,New Hampshire,1 Redhook Way
b5d8ac9a-0449-46e7-8eb8-c1078ee793bb,Apple Blossom Brewing Co,brewpub,1550 E Zion Rd,,,Fayetteville,Arkansas,72703-5017,United States,-94.1372796,36.1297079,4792874344,http://www.appleblossombrewing.com,Arkansas,1550 E Zion Rd
12a02dc2-b34b-48cd-8e34-eac44554c0cf,Appleton Beer Factory,brewpub,603 W College Ave,,,Appleton,Wisconsin,54911-5803,United States,-88.4139148,44.26173602,9203649931,http://www.appletonbeerfactory.com,Wisconsin,603 W College Ave
ea5535e7-94e9-4c24-baa4-32b15b495c8b,Apponaug Brewing,brewpub,334 Knight St,,,Warwick,Rhode Island,02886,United States,-71.4691256,41.7265254,4016814321,http://www.apponaugbrewing.com,Rhode Island,334 Knight St
e04c1682-dba4-4366-ac2e-4a8dab19da3c,Aquabrew,brewpub,150 S L B J Dr,,,San Marcos,Texas,78666-5506,United States,,,5123532739,http://www.aqua-brew.com,Texas,150 S L B J Dr
61239a88-ebee-45d3-9794-12860e11259c,Aquatic Brewing LLC,planning,,,,Falmouth,Massachusetts,02540-3299,United States,,,5084442155,http://www.aquaticbrewing.com,Massachusetts,
fc2ce5e0-8796-4749-9aba-8710cd557ccb,Aqueduct Brewing,micro,529 Grant St Ste 106,,,Akron,Ohio,44311-1184,United States,-81.51788487,41.0698532,3306066583,http://www.aqueductbrewing.shutterfly.com,Ohio,529 Grant St Ste 106
e37a575c-5e11-4a2f-8e58-8fcce92e78ac,"Aransas Pass Brewing Company, LLC",planning,,,,Aransas Pass,Texas,78336-1920,United States,,,,,Texas,
e38d5dc2-4bf9-4627-b468-922baaa621ab,Arbeiter Brewing Company,planning,,,,Minneapolis,Minnesota,55418-2325,United States,,,,http://www.arbeiterbrewing.com,Minnesota,
250d36ec-b9f2-46f4-a4d9-17216f6490b6,Arbor Brewing Co,brewpub,114 E Washington St,,,Ann Arbor,Michigan,48104-1905,United States,-83.74822471,42.28041029,7342131393,http://www.arborbrewing.com,Michigan,114 E Washington St
90fa4058-a971-4fd5-8783-559c670cddde,Arbor Brewing Co. Microbrewery,micro,720 Norris St,,,Ypsilanti,Michigan,48198-2825,United States,-83.6099915,42.250158,7344802739,,Michigan,720 Norris St
30561ae5-f2b9-4690-a94c-12bd52df29bb,Arcadia Brewing Co,micro,701 E Michigan Ave,,,Kalamazoo,Michigan,49007-4946,United States,-85.5715368,42.2950789,2692760458,http://www.arcadiaales.com,Michigan,701 E Michigan Ave
084a0621-2a9d-4588-825e-5c5cebc4e8db,Arcadian Moon,brewpub,19203 Old Highway 40,,,Higginsville,Missouri,64037,United States,-93.773203,39.001467,6605846661,http://www.arcadianmoon.com,Missouri,19203 Old Highway 40
43aa2e45-0b2a-473f-8696-7b9f63040279,Arcana Brewing Company,micro,5621 Palmer Way Ste C,,,Carlsbad,California,92010-7254,United States,-117.273876,33.14038605,,http://www.arcanabrewing.com,California,5621 Palmer Way Ste C
76da304a-4094-4cae-929c-bae2ae18d24d,Arch Rock Brewing Co,micro,28779 Hunter Creek Loop,,,Gold Beach,Oregon,97444-9626,United States,-124.4155402,42.3898306,5412470555,http://www.archrockbrewingcompany.com,Oregon,28779 Hunter Creek Loop
cf5055f4-59f8-4adf-b16c-b9233281bedf,Archaic Craft Brewery At Centro,brewpub,140 E Main St,,,Tustin,California,92780-4408,United States,-117.823173,33.7419754,7142588817,,California,140 E Main St
ce1af2d9-e7d4-4d13-99f6-212067335f9e,Arches Brewing,micro,3361 Dogwood Dr,,,Hapeville,Georgia,30354-1439,United States,,,6786532739,,Georgia,3361 Dogwood Dr
d86d40e0-1a3f-4c34-9b07-002191bc0952,Archetype Brewing,micro,265 Haywood Rd,,,Asheville,North Carolina,28806-4545,United States,,,8285054177,http://www.archetypebrewing.com,North Carolina,265 Haywood Rd
fc552937-9245-4091-94b2-645ed0599756,Arclight Brewing Company,micro,544 N Main St,,,Watervliet,Michigan,49098-9797,United States,-86.25939238,42.19104832,2693320718,http://www.arclightbrewing.com,Michigan,544 N Main St
596ac64f-9586-4b9c-8ca4-9e637be672ef,Arcpoint Brewing Co,micro,,,,Belchertown,Massachusetts,01007-9305,United States,,,5187964977,http://www.arcpointbrewco.com,Massachusetts,
14e4b777-090d-46f9-8cfa-795c1201a191,Ardent Craft Ales,micro,3200 W Leigh St,,,Richmond,Virginia,23230-4410,United States,-77.47201237,37.5684425,8043591605,http://www.ardentcraftales.com,Virginia,3200 W Leigh St
0b0b64c0-f10c-4252-8243-e5b9255e0b95,"Ardent Spirits, Inc",planning,,,,Collinsville,Illinois,62234,United States,,,13143235530,http://Ardentspirits.com,Illinois,
1914fbf9-74d3-4115-909e-fddcb112e227,Argilla Brewing Co @ Pietro's Pizza,brewpub,2667 Kirkwood Hwy,,,Newark,Delaware,19711-7242,United States,,,3027318200,http://www.argillabrewing.com,Delaware,2667 Kirkwood Hwy
7a5dc3de-6ec7-4407-94fa-3ea9a5b627aa,Argus Brewery,micro,11314 S Front Ave,,,Chicago,Illinois,60628-5007,United States,-87.61206845,41.68854885,7739414050,http://www.argusbrewery.com,Illinois,11314 S Front Ave
9408064a-bc10-4e15-84d0-3ff698036d4f,Argyle Brewing Company,micro,1 Main St,,,Greenwich,New York,12834-1209,United States,-73.496758,43.08767125,5183387405,http://www.argylebrewing.com,New York,1 Main St
264be80a-dc5e-40cf-93f9-cd4914656440,Arizona Craft Brewing,micro,"473 Elgin Road, Suite BH",,,Elgin,Arizona,85611,United States,,,520369342,,Arizona,"473 Elgin Road, Suite BH"
701f00a8-fa71-4b74-9fb9-cf82c24c5b38,Arizona Wilderness Brewing,brewpub,721 N Arizona Ave,,,Gilbert,Arizona,85233-3405,United States,,,4804972739,http://Azwbeer.com,Arizona,721 N Arizona Ave
5acdc1a1-5631-4c03-960c-bd076237f124,Arkane Aleworks,micro,2480 E Bay Dr #23,,,Largo,Florida,33771-2467,United States,,,7272707117,http://www.arkanebeer.com,Florida,2480 E Bay Dr #23
5f887385-2c6a-4de6-8dec-68fb5c58029d,Arkose Brewery,micro,650 E Steel Loop,,,Palmer,Alaska,99645-6689,United States,-149.103408,61.582157,9077462337,http://www.arkosebrewery.com,Alaska,650 E Steel Loop
e10fa788-d3d7-4917-bf66-4caf54d5e6bf,Arlington Brewery & Cidery,brewpub,1060 Spioenkop Street,,,Arlington,Gauteng,1933,South Africa,28.0267,-26.7909,+27 72 191 2470,https://arlington.co.za/,Gauteng,1060 Spioenkop Street
4cc17a95-7020-43f2-bc23-b9d9ddd29a10,Arlington Club,micro,811 SW Salmon St,,,Portland,Oregon,97205-3094,United States,-122.6818596,45.51786855,5032234141,http://www.thearlingtonclub.com,Oregon,811 SW Salmon St
6caf8832-1b1d-468a-a01e-87c9f82dcad7,Armada Brewing,contract,250 Bradley Street,,,East Haven,Connecticut,06512,United States,-72.87397563,41.29004301,4754413759,http://www.armadabeer.com,Connecticut,250 Bradley Street
7e286282-9365-48c2-8bd2-1193bac62449,Armadillo Ale Works,micro,221 S Bell Ave,,,Denton,Texas,76201-4259,United States,-97.12830051,33.21286666,9405804446,http://www.armadilloaleworks.com,Texas,221 S Bell Ave
d0dc210e-6f0e-4194-8791-dd2fe153843b,Armistice Brewing Company,micro,845 Marina Bay Pkwy Suite 1,,,Richmond,California,94804-6420,United States,-122.348274,37.91966864,5102304966,http://www.armisticebrewing.com,California,845 Marina Bay Pkwy Suite 1
244d5454-88ea-41c3-b3b7-c4374e8b795c,"Armour Brewing Company, LLC",brewpub,721 Main St,,,Armour,South Dakota,57313-2122,United States,-98.34450702,43.33084265,4028901550,http://www.facebook.com/ArmourBrewingCompany,South Dakota,721 Main St
a19630e3-638c-4ab8-a305-36c4f1cb84f7,Armstrong Brewing Co,micro,415 Grand Ave Ste 103,,,South San Francisco,California,94080-3614,United States,-119.1925726,50.44703096,6509898447,http://www.armstrongbrewing.com,California,415 Grand Ave Ste 103
d95ce7ad-97be-4a46-a9a0-85260f2bef4f,Around the Bend Beer Co.,contract,811 N Oak Park Ave,,,Oak Park,Illinois,60302-1538,United States,-87.79493034,41.90015593,3129522339,http://www.atbbeerco.com,Illinois,811 N Oak Park Ave
03411879-9d3e-4e2b-82a5-d5d01935074f,Arrow Lodge Brewing,micro,720 E Arrow Hwy Ste C,,,Covina,California,91722-2103,United States,-117.8767215,34.105251,6264832667,https://www.arrowlodgebrew.com/,California,720 E Arrow Hwy Ste C
118dd02b-488c-48a7-bfd0-7b49ee168f96,Arrowhead Ales Brewing Company,brewpub,2101 Calistoga Dr,,,New Lenox,Illinois,60451-4826,United States,-87.95726941,41.48205844,8157176068,http://www.arrowheadales.com,Illinois,2101 Calistoga Dr
647378c3-df63-4da2-a88d-808943dcd4f9,Arrowood Farms,micro,236 Lower Whitfield Rd,,,Accord,New York,12404-5809,United States,-74.24891742,41.80666144,8452530389,http://www.arrowoodfarms.com,New York,236 Lower Whitfield Rd
05549159-6724-478d-a976-4925533a40f2,Art History Brewing,micro,649 W State St,,,Geneva,Illinois,60134,United States,-88.312704761043,41.889484227325,6303456274,https://arthistorybrewing.com,Illinois,649 W State St
174e828f-10aa-43b9-ba31-3c3f45001288,Artifex Brewing Company,micro,919 Calle Amanecer Ste A,,,San Clemente,California,92673-6298,United States,-117.6058963,33.44918353,9494297805,http://www.artifexbrewing.com,California,919 Calle Amanecer Ste A
1d34d7cf-c2ce-4e07-aec2-930d3299c584,Artisan Owl Brewing Company,planning,,,,Ocean City,New Jersey,08226-4237,United States,,,2157402057,,New Jersey,
e0783ffa-721d-45e2-9715-cbc1023a7d27,Artisan's Brewery & Italian Grill,brewpub,1171 Hooper Ave,,,Toms River,New Jersey,08753-8305,United States,-74.1880387,39.9625642,7322447566,http://www.artisanstomsriver.com,New Jersey,1171 Hooper Ave
8fb6c630-7647-4a16-a55a-fde63c129636,Artisanal Brew Works,micro,41 Geyser Rd,,,Saratoga Springs,New York,12866-9038,United States,,,5185942337,http://www.artisanalbrewworks.com,New York,41 Geyser Rd
ed7c9e44-df88-4e3e-8ed2-54af6f4539e5,Arts District Brewing Company,brewpub,828 Traction Ave,,,Los Angeles,California,90013-1816,United States,-118.2357029,34.04505443,,,California,828 Traction Ave
6f83ab76-9ebd-4b2c-a290-effaa2dca8b9,Arundel Brewery Ltd,brewpub,Lyminster Road,,,Arundel,West Sussex,BN17 7QL,England,-0.534301,50.839971,1903733111,https://www.arundelbrewery.co.uk/,West Sussex,Lyminster Road
39b6533a-40a4-4ba1-a41e-dd8f381b7ed7,Arundel Cellars & Brewing Co,brewpub,11727 E Main Rd,,,North East,Pennsylvania,16428-3635,United States,-79.8216539,42.2195527,8147251079,http://www.arundelcellars.com,Pennsylvania,11727 E Main Rd
ed6c7254-d6f6-40a1-a330-135a1e3a09ad,Arvon Brewing Co.,micro,3057 Broadway Ave SW,,,Grandville,Michigan,49418-1528,United States,-85.7720434,42.909272,6162240086,http://www.arvonbrewingco.com,Michigan,3057 Broadway Ave SW
41f5672a-79ff-4559-9231-db2ecdcb2385,Asbury Park Brewery,micro,810 Sewall Ave,,,Asbury Park,New Jersey,07712-6527,United States,-74.01229282,40.21956661,7324555571,http://www.asburyparkbrewery.com,New Jersey,810 Sewall Ave
ce507918-f969-4d44-a218-daca121c4bd0,Ascension Brewing Company,brewpub,42000 Grand River Ave,,,Novi,Michigan,48375-1831,United States,-83.4609783,42.4783271,2483082093,http://www.ascension.beer,Michigan,42000 Grand River Ave
e337af00-da5a-4bcf-ab5d-d9d9252b8ae8,Asgard Brewing Company,micro,104 E 5th St,,,Columbia,Tennessee,38401-3351,United States,-87.03329688,35.6174542,6158282218,http://www.asgardbrewery.com,Tennessee,104 E 5th St
64749ace-0bca-4548-83e4-c6465547c60f,Ashby Brewing Company,micro,109 Main St,,,Ashby,Minnesota,56309-4687,United States,-95.81621756,46.09300639,8886350291,http://www.abcbrewing.net,Minnesota,109 Main St
051edb66-62ad-455e-a04a-d6a0e5fa4178,Asher Brewing Co,micro,4699 Nautilus Ct S Ste 104,,,Boulder,Colorado,80301-5306,United States,,,3035301381,http://asherbrewing.com,Colorado,4699 Nautilus Ct S Ste 104
b5671147-4dec-4e19-b256-79a2f03b94e9,Asheville Brewing Co,brewpub,77 Coxe Ave,,,Asheville,North Carolina,28801-3621,United States,-82.55530545,35.5917763,8282554077,http://www.ashevillepizza.com,North Carolina,77 Coxe Ave
3638576a-b41f-4ffc-a039-9d2b27df4a47,Ashtown Brewing Co,micro,1145 11th Ave,,,Longview,Washington,98632,United States,-122.9330459,46.13507657,3602187519,http://www.ashtownbrewing.com,Washington,1145 11th Ave
